ISOURBID,ISO3,URBID,NAME,SCHNM,ES90POP,ES95POP,ES00POP,SQKM_FINAL,URB_D_MEAN,BUF_D_MEAN,D_T_DIFF,URB_N_MEAN,BUF_N_MEAN,N_T_DIFF,LATITUDE,LONGITUDE
GRL8,GRL,8,Upernavik,UPERNAVIK,918,1015,1123,4.93,7.05,7.95,-0.90,-3.16,-1.66,-1.50,72.78859775,-56.14005599
USA15,USA,15,Barrow,BARROW,3469,3986,4581,152.21,10.65,12.41,-1.76,-0.45,0.80,-1.25,71.30396294,-156.7302058
NOR17,NOR,17,Honningsvåg,HONNINGSVAG,2237,2356,2510,47.58,16.66,14.53,2.13,5.43,6.72,-1.29,71.00498858,25.96256797
NOR19,NOR,19,Hav?ysund,HAVOYSUND,1285,1235,1163,19.44,14.61,14.87,-0.26,5.61,5.75,-0.14,70.98306828,24.65280265
NOR21,NOR,21,Kj?llefjord,KJOLLEFJORD,1159,1115,1049,35.16,20.33,18.24,2.09,4.57,6.96,-2.40,70.94386971,27.35639187
NOR26,NOR,26,Berlevåg,BERLEVAG,1297,1247,1174,35.15,20.68,18.98,1.70,6.75,6.09,0.67,70.84313287,29.07092112
GRL31,GRL,31,Uummannaq,UUMMANNAQ,1405,1422,1440,7.38,9.84,11.15,-1.31,1.52,4.49,-2.97,70.69062226,-52.12977833
RUS40,RUS,40,Anadyr,ANADYR,12054,12035,11900,130.00,23.86,22.77,1.10,-0.27,3.21,-3.48,64.75772285,177.7247612
WLF52,WLF,52,Mata'utu,MATAUTU,1222,1150,1083,21.73,28.52,27.59,0.93,22.25,23.77,-1.52,-13.27915541,-176.1717912
WSM53,WSM,53,Apia,APIA,48921,52041,55640,84.75,30.07,26.06,4.01,21.97,20.48,1.49,-13.85220631,-171.7693123
FJI58,FJI,58,Labasa,LABASA,5495,6313,7254,257.19,33.27,31.40,1.87,21.29,21.69,-0.40,-16.46931299,179.3622304
FJI68,FJI,68,Lautoka,LAUTOKA,52847,58677,65275,1072.32,33.94,31.56,2.38,21.02,20.54,0.48,-17.61844031,177.6378907
FJI76,FJI,76,Suva,SUVA,87419,92593,98097,234.22,33.06,30.66,2.40,20.79,20.28,0.51,-18.06908984,178.4996775
FJI78,FJI,78,Sigatoka,SIGATOKA,1881,1641,1432,91.74,31.97,31.84,0.13,22.54,22.74,-0.20,-18.13122951,177.4706059
TON84,TON,84,Neiafu,NEIAFU,3927,3988,4050,14.83,31.43,28.99,2.44,23.68,22.82,0.86,-18.64759078,-173.9798468
TON86,TON,86,Nuku'alofa,NUKUALOFA,34339,35362,36424,191.62,30.73,28.99,1.74,22.10,22.20,-0.10,-21.17154099,-175.2008007
NZL87,NZL,87,Whakatane,WHAKATANE,17167,17441,17719,51.13,28.99,27.94,1.05,12.19,11.68,0.51,-37.96300811,176.9850298
NZL89,NZL,89,Opotiki,OPOTIKI,4453,4241,4039,39.40,30.02,27.48,2.54,11.69,11.76,-0.06,-38.01364908,177.2993436
NZL90,NZL,90,Kawerau,KAWERAU,8995,8013,7138,76.38,30.25,27.60,2.65,11.46,11.38,0.08,-38.07138621,176.7256155
NZL91,NZL,91,Murupara,MURUPARA,2549,2261,2006,13.45,32.66,27.47,5.19,8.70,9.12,-0.43,-38.45175161,176.7133199
NZL92,NZL,92,Gisborne,GISBORNE,33704,32788,31897,118.53,33.19,30.27,2.91,12.75,12.31,0.44,-38.65128307,178.0132681
NZL94,NZL,94,Wairoa,WAIROA,5829,5129,4514,60.51,33.17,31.03,2.15,12.03,12.31,-0.28,-39.02984748,177.4353034
NZL96,NZL,96,Hastings,HASTINGS,111747,112618,113497,346.34,32.96,30.81,2.14,12.15,12.06,0.09,-39.50764653,176.8610136
CHL101,CHL,101,Valdivia,VALDIVIA,109924,117027,124590,180.26,28.51,27.13,1.38,11.03,10.83,0.19,-39.81947928,-73.22024876
NZL104,NZL,104,Wanganui,WANGANUI,43200,41440,39752,151.19,31.13,28.45,2.67,9.74,9.64,0.10,-39.92597239,175.0606307
ARG105,ARG,105,VILLALONGA,VILLALONGA,3148,3412,3654,34.24,47.00,47.17,-0.17,12.45,12.55,-0.09,-39.92066174,-62.61410751
ARG106,ARG,106,Junín de los Andes,JUNINDELOSANDES,8755,9489,10161,107.96,49.58,49.22,0.36,7.19,6.86,0.33,-39.94865267,-71.06092887
NZL107,NZL,107,Waipukurau,WAIPUKURAU,6085,5946,5811,65.80,37.08,34.07,3.02,9.06,8.61,0.45,-39.97574981,176.5725692
ARG108,ARG,108,Piedra del ?guila,PIEDRADELAGUILA,2858,3098,3318,193.93,53.80,54.77,-0.97,11.37,10.69,0.68,-40.02089462,-70.01729191
ARG110,ARG,110,General Conesa,GENERALCONESA,4255,4611,4938,50.24,46.02,50.16,-4.14,15.03,15.27,-0.24,-40.09954879,-64.44582063
NZL111,NZL,111,Marton,MARTON,6135,5462,4864,42.04,31.12,30.24,0.88,7.65,8.43,-0.77,-40.07857608,175.3904826
ARG113,ARG,113,San Martín de los Andes,SANMARTINDELOSANDES,19063,20661,22126,121.03,37.71,34.29,3.42,8.02,5.78,2.23,-40.15141408,-71.31871349
NZL115,NZL,115,Bulls,BULLS,2016,1893,1777,26.04,32.44,31.61,0.84,8.44,8.19,0.25,-40.18459781,175.3943479
ARG116,ARG,116,STROEDER,STROEDER,2109,2048,1987,34.11,48.74,49.34,-0.60,12.87,12.66,0.21,-40.18059847,-62.61522932
NZL117,NZL,117,Dannevirke,DANNEVIRKE,5723,5548,5379,47.22,28.41,27.96,0.44,7.21,7.62,-0.41,-40.20846521,176.119546
NZL118,NZL,118,Feilding,FEILDING,14534,14121,13720,72.11,31.46,30.33,1.13,8.33,8.06,0.27,-40.22542586,175.5859697
NZL120,NZL,120,Palmerston North,PALMERSTONNORTH,75300,74098,72915,244.71,30.75,28.22,2.52,8.68,8.27,0.41,-40.35613039,175.6184131
CHL125,CHL,125,Osorno,OSORNO,110943,119367,128430,280.58,35.07,33.83,1.24,8.00,8.07,-0.07,-40.54164547,-73.15248481
NZL126,NZL,126,Foxton,FOXTON,4823,4720,4620,33.17,30.71,30.04,0.67,7.90,8.56,-0.66,-40.46799459,175.2835705
NZL132,NZL,132,Levin,LEVIN,19663,19379,19099,104.93,29.51,26.02,3.49,9.23,8.39,0.83,-40.61988024,175.2965987
ARG134,ARG,134,Valcheta,VALCHETA,3021,3274,3506,37.77,53.90,55.11,-1.21,14.87,14.56,0.31,-40.67552993,-66.15058014
ARG136,ARG,136,San Antonio Oeste,SANANTONIOOESTE,11687,12667,13565,75.80,47.67,47.27,0.40,15.85,15.49,0.36,-40.73410017,-64.95221366
NZL138,NZL,138,Otaki,OTAKI,5505,5567,5630,58.68,28.76,24.29,4.47,9.22,8.34,0.88,-40.76207892,175.1646317
ARG140,ARG,140,Villa La Angostura,VILLALAANGOSTURA,6225,6746,7225,48.49,28.99,26.40,2.59,7.29,6.72,0.57,-40.76291643,-71.62048623
ARG141,ARG,141,Viedma,VIEDMA,54409,58970,63151,171.00,47.52,48.59,-1.06,13.34,12.52,0.82,-40.81368581,-62.98714179
ARG145,ARG,145,Los Menucos,LOSMENUCOS,2285,2476,2652,32.48,52.49,53.36,-0.87,9.74,9.69,0.05,-40.84100145,-68.0683382
NZL147,NZL,147,Takaka,TAKAKA,1269,1231,1195,17.05,28.49,24.97,3.52,10.82,10.96,-0.14,-40.85267174,172.810974
NZL148,NZL,148,Kapiti,KAPITI,26685,29658,32962,138.23,25.58,22.43,3.15,9.41,8.97,0.45,-40.91177176,175.041751
NZL150,NZL,150,Masterton,MASTERTON,19918,19727,19538,121.26,32.18,30.18,1.99,8.42,8.66,-0.24,-40.95432549,175.6587865
NZL152,NZL,152,Carterton,CARTERTON,4254,4184,4115,38.87,31.83,30.80,1.03,6.38,8.07,-1.70,-41.02494736,175.5338728
AUS153,AUS,153,Burnie,BURNIE,16922,17894,18922,83.29,30.09,30.02,0.08,9.86,9.12,0.75,-41.07667391,145.8982854
NZL155,NZL,155,Wellington,WELLINGTON,468819,474741,480770,754.77,25.41,21.80,3.61,9.87,9.66,0.21,-41.19272482,174.9205029
ARG156,ARG,156,San Carlos de Bariloche,SANCARLOSDEBARILOCHE,75714,82061,87879,220.84,33.17,30.60,2.57,6.93,7.32,-0.38,-41.13807548,-71.3509942
NZL158,NZL,158,Motueka,MOTUEKA,6292,6558,6834,29.75,28.32,25.77,2.55,10.76,11.17,-0.42,-41.11499087,172.9959459
AUS165,AUS,165,Devonport,DEVONPORT,32208,32104,32110,228.88,33.04,30.83,2.21,10.21,9.85,0.36,-41.19100142,146.3298188
NZL170,NZL,170,Martinborough,MARTINBOROUGH,1591,1479,1376,16.15,35.14,32.94,2.20,7.33,7.39,-0.07,-41.21750363,175.467819
NZL171,NZL,171,Nelson,NELSON,49676,52712,55942,254.24,28.35,25.28,3.06,11.05,10.48,0.57,-41.32284084,173.2060407
CHL172,CHL,172,Puerto Varas,PUERTOVARAS,15119,17684,20684,90.36,30.78,27.66,3.13,7.36,8.39,-1.03,-41.3124153,-72.98647537
NZL174,NZL,174,Picton,PICTON,3808,3889,3973,58.65,23.09,21.78,1.31,10.04,11.34,-1.30,-41.29617929,174.0255279
ARG175,ARG,175,Ingeniero Jacobacci,INGENIEROJACOBACCI,4860,5267,5641,49.00,51.39,51.85,-0.46,7.24,7.34,-0.09,-41.33091842,-69.52829444
AUS178,AUS,178,Launceston,LAUNCESTON,66821,67554,68294,367.34,37.79,35.78,2.01,9.73,9.12,0.61,-41.46179785,147.1510003
CHL183,CHL,183,Puerto Montt,PUERTOMONTT,103116,121581,143354,172.34,29.31,26.97,2.35,6.78,7.72,-0.94,-41.45672752,-72.94488908
NZL186,NZL,186,Blenheim,BLENHEIM,24724,25538,26379,179.89,29.95,26.74,3.21,9.10,9.91,-0.81,-41.50810799,173.9355254
ARG192,ARG,192,Sierra Grande,SIERRAGRANDE,5748,6230,6671,59.07,50.86,49.58,1.28,12.58,12.21,0.36,-41.60655239,-65.34973125
NZL202,NZL,202,Westport,WESTPORT,4859,4337,3870,38.59,26.52,23.84,2.68,8.42,7.96,0.46,-41.76013767,171.6139192
CHL208,CHL,208,Ancud,ANCUD,22398,24320,26408,16.00,21.59,24.80,-3.21,8.72,7.37,1.34,-41.87886939,-73.78687321
ARG209,ARG,209,El Bolsón,ELBOLSON,11523,12489,13375,71.86,35.28,32.79,2.49,7.09,5.29,1.80,-41.96498577,-71.51406813
ARG212,ARG,212,El Maitén,ELMAITEN,2881,3123,3344,61.84,42.66,41.23,1.43,6.53,5.39,1.14,-42.05057027,-71.15322665
NZL218,NZL,218,Kaikoura,KAIKOURA,2351,2236,2127,15.92,26.13,25.59,0.53,9.62,9.31,0.31,-42.392161,173.6751205
NZL219,NZL,219,Greymouth,GREYMOUTH,11196,10403,9666,55.64,24.29,24.46,-0.17,6.54,6.85,-0.31,-42.4569634,171.2314337
CHL221,CHL,221,Castro,CASTRO,19257,22887,27202,66.16,26.94,25.04,1.89,7.49,6.50,0.99,-42.48059463,-73.75186463
NZL224,NZL,224,Hokitika,HOKITIKA,4226,3869,3542,38.56,25.05,25.34,-0.30,5.75,7.08,-1.34,-42.72382252,170.9957327
ARG225,ARG,225,Puerto Madryn,PUERTOMADRYN,48963,53067,56830,128.02,46.99,49.03,-2.04,11.03,10.87,0.16,-42.76716688,-65.05721369
AUS226,AUS,226,Hobart,HOBART,193066,191751,190598,433.35,33.94,31.99,1.95,9.66,9.40,0.27,-42.84981153,147.3440314
AUS228,AUS,228,New Norfolk,NEWNORFOLK,4871,5222,5620,68.83,37.62,34.16,3.46,8.93,8.15,0.78,-42.77685177,147.0965091
ARG231,ARG,231,Esquel,ESQUEL,23871,25872,27706,136.46,39.06,39.23,-0.17,5.56,4.68,0.88,-42.91408859,-71.28135951
ARG237,ARG,237,Trevelin,TREVELIN,4126,4472,4789,49.53,40.90,38.47,2.44,8.12,6.76,1.36,-43.09212692,-71.44045788
NZL240,NZL,240,Amberley,AMBERLEY,875,945,990,18.16,29.41,29.23,0.18,8.70,9.08,-0.37,-43.15814413,172.7363322
ARG241,ARG,241,Trelew,TRELEW,75045,81336,87103,182.59,46.10,47.77,-1.67,11.66,11.21,0.45,-43.25874333,-65.29786425
NZL242,NZL,242,Christchurch,CHRISTCHURCH,329543,338664,348117,737.70,31.47,29.27,2.19,9.13,8.79,0.34,-43.48796884,172.6002759
ARG243,ARG,243,Rawson,RAWSON,21986,23830,25519,93.91,45.46,46.65,-1.19,11.04,11.31,-0.27,-43.30284375,-65.093738
ARG244,ARG,244,Gaiman,GAIMAN,3647,3953,4233,70.62,44.77,47.23,-2.46,10.45,10.75,-0.30,-43.29351039,-65.48765014
ARG245,ARG,245,Dolavon,DOLAVON,2119,2297,2460,35.61,45.48,46.72,-1.24,10.73,10.49,0.25,-43.30675907,-65.69510615
NZL247,NZL,247,Darfield,DARFIELD,1177,1275,1382,19.31,34.20,31.54,2.66,7.16,7.34,-0.18,-43.48152319,172.1079121
NZL248,NZL,248,Rolleston,ROLLESTON,1727,1865,1955,68.40,35.28,33.18,2.10,8.02,7.74,0.29,-43.59997109,172.3326342
NZL255,NZL,255,Ashburton,ASHBURTON,15790,15784,15778,73.27,31.31,28.46,2.84,8.30,7.77,0.54,-43.89923731,171.7577991
ARG256,ARG,256,Gobernador Costa,GOBERNADORCOSTA,2091,2030,1969,20.37,40.46,42.27,-1.81,4.41,4.29,0.12,-44.04221916,-70.58800877
ARG257,ARG,257,José de San Martín,JOSEDESANMARTIN,1552,1507,1461,13.58,43.72,42.84,0.88,4.35,4.07,0.28,-44.04550171,-70.45568655
NZL260,NZL,260,Temuka,TEMUKA,3963,3978,3993,35.15,29.25,27.76,1.49,7.31,7.66,-0.36,-44.24462359,171.2853795
NZL262,NZL,262,Timaru,TIMARU,27694,27260,26833,82.28,29.25,27.74,1.51,8.36,8.24,0.11,-44.37685458,171.2221981
NZL264,NZL,264,Wanaka,WANAKA,1808,2387,3150,45.04,37.97,33.32,4.65,8.63,7.26,1.36,-44.694847,169.1571716
NZL266,NZL,266,Waimate,WAIMATE,3204,2993,2795,17.08,26.92,24.86,2.06,7.62,7.44,0.18,-44.72675092,171.0479002
ARG267,ARG,267,Camarones,CAMARONES,1152,1119,1085,19.33,39.22,42.87,-3.65,10.13,11.22,-1.09,-44.79092418,-65.72203223
NZL272,NZL,272,Queenstown,QUEENSTOWN,6471,7340,8325,86.63,29.01,27.75,1.25,6.79,5.91,0.88,-45.020806,168.6770174
ARG274,ARG,274,Alto Río Senguer,ALTORIOSENGUER,1553,1508,1462,33.37,35.55,38.46,-2.92,5.13,5.34,-0.21,-45.04050167,-70.81341328
NZL275,NZL,275,Oamaru,OAMARU,14338,13565,12834,60.21,24.66,24.38,0.28,7.82,7.30,0.53,-45.0812519,170.9682404
NZL282,NZL,282,Alexandra,ALEXANDRA,4879,4657,4445,61.06,38.90,39.07,-0.17,7.63,6.48,1.14,-45.24616138,169.4100111
CHL288,CHL,288,Coihaique,COIHAIQUE,34884,38735,43010,91.35,25.49,22.74,2.75,4.58,2.99,1.60,-45.57499715,-72.0382714
ARG289,ARG,289,Sarmiento,SARMIENTO,6822,7394,7918,72.70,37.32,36.38,0.94,9.39,9.76,-0.36,-45.59309171,-69.05010973
ARG291,ARG,291,Río Mayo,RIOMAYO,2497,2707,2899,50.98,41.19,40.20,0.99,5.90,5.95,-0.05,-45.68501038,-70.24828636
ARG293,ARG,293,Comodoro Rivadavia,COMODORORIVADAVIA,121671,131743,140973,417.35,39.45,39.44,0.01,10.69,9.27,1.42,-45.81408305,-67.54626912
NZL298,NZL,298,Dunedin,DUNEDIN,115409,111549,107819,283.35,24.30,22.32,1.97,7.64,7.89,-0.25,-45.86698734,170.4730231
NZL307,NZL,307,Gore,GORE,11523,10768,10062,74.42,29.19,27.73,1.46,7.14,6.12,1.02,-46.10430314,168.9527493
NZL310,NZL,310,Milton,MILTON,2142,2036,1936,35.11,25.59,23.60,1.99,5.28,6.60,-1.32,-46.11725271,169.9737826
NZL311,NZL,311,Winton,WINTON,2303,2208,2118,33.91,27.07,26.23,0.84,7.17,6.29,0.88,-46.14842665,168.3288628
NZL314,NZL,314,Balclutha,BALCLUTHA,4173,4143,4113,61.01,26.54,26.05,0.49,7.68,7.16,0.52,-46.24431733,169.7432209
NZL316,NZL,316,Invercargill,INVERCARGILL,53391,50045,46908,196.63,26.63,24.85,1.78,6.23,5.69,0.54,-46.39139356,168.3669585
NZL319,NZL,319,Riverton,RIVERTON,2068,1868,1687,7.95,22.63,23.57,-0.93,4.25,5.50,-1.25,-46.35811899,168.0226686
ARG321,ARG,321,Caleta Olivia,CALETAOLIVIA,30659,33230,35586,67.71,39.77,40.18,-0.41,8.83,9.38,-0.55,-46.45034384,-67.54301745
ARG324,ARG,324,Las Heras,LASHERAS,7906,8568,9176,73.23,41.74,42.62,-0.88,7.15,6.52,0.64,-46.54274638,-68.9323299
ARG328,ARG,328,Los Antiguos,LOSANTIGUOS,1739,1885,2019,29.24,31.27,26.86,4.41,7.53,8.10,-0.57,-46.55625605,-71.63060167
NZL330,NZL,330,Bluff,BLUFF,2277,2113,1961,38.49,23.15,23.60,-0.45,6.45,5.50,0.95,-46.5882891,168.3823551
ARG331,ARG,331,Perito Moreno,PERITOMORENO,3049,3304,3539,53.70,36.15,36.53,-0.38,6.74,6.30,0.45,-46.58854269,-70.91662667
ARG336,ARG,336,Pico Truncado,PICOTRUNCADO,12734,13802,14781,68.19,43.85,45.20,-1.35,7.53,7.45,0.08,-46.79277189,-67.95330951
ARG338,ARG,338,Puerto Deseado,PUERTODESEADO,8699,9429,10097,50.59,37.46,39.47,-2.01,7.85,7.56,0.29,-47.74555733,-65.90485991
ARG339,ARG,339,Gobernador Gregores,GOBERNADORGREGORES,2140,2320,2484,51.52,36.89,37.18,-0.28,6.07,4.90,1.17,-48.74769943,-70.23961009
ARG341,ARG,341,Puerto San Julián,PUERTOSANJULIAN,5220,5658,6059,51.14,38.54,37.26,1.28,4.03,4.51,-0.48,-49.29503173,-67.75851793
ARG344,ARG,344,Comandante Luis Piedrabuena,COMANDANTELUISPIEDRABUENA,3548,3846,4119,57.77,38.15,38.84,-0.68,4.57,4.12,0.46,-49.98304294,-68.90471627
ARG345,ARG,345,Puerto Santa Cruz,PUERTOSANTACRUZ,2886,3128,3350,21.80,35.48,34.13,1.35,3.19,3.71,-0.51,-50.01993253,-68.54659565
ARG347,ARG,347,El Calafate,ELCALAFATE,5447,5904,6322,60.03,28.23,22.50,5.73,4.89,4.59,0.30,-50.34069492,-72.24778997
ARG363,ARG,363,Río Gallegos,RIOGALLEGOS,67260,72898,78067,75.06,25.84,27.13,-1.28,3.68,3.40,0.28,-51.63325587,-69.24095573
FLK365,FLK,365,Port Stanley,PORTSTANLEY,1104,1442,1885,33.75,22.44,22.30,0.14,2.07,2.29,-0.22,-51.6619502,-57.81792617
CHL394,CHL,394,Punta Arenas,PUNTAARENAS,107781,111134,114592,142.96,17.72,17.69,0.03,2.48,1.68,0.80,-53.12679359,-70.94782535
ARG404,ARG,404,Río Grande,RIOGRANDE,44770,48523,51964,81.87,23.13,23.78,-0.65,1.25,0.58,0.66,-53.79426368,-67.73388796
ARG408,ARG,408,Tolhuin,TOLHUIN,1283,1245,1208,26.42,18.91,17.82,1.10,2.48,2.35,0.13,-54.51169687,-67.19190661
ARG410,ARG,410,Ushuaia,USHUAIA,38608,41845,44811,118.81,13.34,12.18,1.16,-1.60,-2.24,0.64,-54.80403981,-68.31644582
NOR411,NOR,411,Hammerfest,HAMMERFEST,5667,5971,6361,143.29,19.10,17.28,1.82,5.63,5.68,-0.05,70.66364678,23.77266654
NOR413,NOR,413,Båtsfjord,BATSFJORD,2074,2185,2328,94.64,20.63,19.15,1.48,4.42,5.33,-0.91,70.62001939,29.70435435
NOR433,NOR,433,Vard?,VARDO,1986,2093,2229,14.76,16.09,16.27,-0.18,4.90,5.85,-0.94,70.37823124,31.03206435
NOR452,NOR,452,Vads?,VADSO,4409,4646,4949,55.90,21.30,21.59,-0.29,5.47,5.43,0.04,70.09816189,29.74371065
NOR456,NOR,456,Lakselv,LAKSELV,1854,1954,2081,75.85,19.34,18.99,0.35,4.83,5.49,-0.66,70.04946504,24.97742022
NOR459,NOR,459,Skjerv?y,SKJERVOY,2091,2203,2346,14.10,14.02,15.52,-1.50,7.39,6.79,0.61,70.02409596,20.97086868
NOR462,NOR,462,Alta,ALTA,9607,10465,11400,287.19,20.03,20.89,-0.86,6.41,6.12,0.29,69.9338926,23.33103388
NOR478,NOR,478,Storslett,STORSLETT,1537,1478,1392,161.88,19.41,19.75,-0.34,5.64,4.53,1.11,69.78566215,20.91752125
NOR489,NOR,489,Kirkenes,KIRKENES,4960,5226,5566,180.35,21.75,20.93,0.82,6.02,6.30,-0.28,69.69049517,30.01430722
NOR491,NOR,491,Troms?,TROMSO,41650,45226,49109,401.00,19.74,18.42,1.32,2.94,3.33,-0.40,69.63860059,18.99467684
NOR512,NOR,512,Karasjok,KARASJOK,2176,2093,1970,102.73,21.30,21.88,-0.57,3.15,3.23,-0.08,69.46021122,25.4992224
RUS524,RUS,524,Dudinka,DUDINKA,27147,27105,26800,8.57,27.42,28.35,-0.94,10.60,8.71,1.90,69.40512308,86.17833311
NOR530,NOR,530,Finnsnes,FINNSNES,3322,3500,3728,492.68,19.70,19.39,0.31,3.65,3.46,0.20,69.24216431,17.95848447
NOR536,NOR,536,Andenes,ANDENES,2473,2605,2775,75.29,18.54,16.80,1.73,2.58,3.57,-0.98,69.26599203,16.06007502
RUS537,RUS,537,Norilsk,NORILSK,171551,155299,140587,10.86,34.98,32.13,2.85,10.67,8.36,2.31,69.32154645,88.21226573
RUS542,RUS,542,Murmansk,MURMANSK,504818,463715,426550,1270.26,21.95,22.41,-0.46,5.40,5.12,0.28,68.96678958,33.15519176
GRL545,GRL,545,Ilulissat,ILULISSAT,4191,4179,4167,28.31,16.73,12.21,4.52,1.21,1.61,-0.40,69.22187389,-51.06079827
NOR556,NOR,556,Myre,MYRE,1801,1898,2022,18.74,19.35,19.24,0.11,3.57,2.73,0.84,69.10716541,15.91565763
NOR563,NOR,563,Kautokeino,KAUTOKEINO,1484,1427,1343,108.79,23.25,22.61,0.64,3.94,3.94,0.00,69.00962071,23.06240956
NOR582,NOR,582,Setermoen,SETERMOEN,1984,2090,2226,98.14,20.67,20.91,-0.24,2.41,1.14,1.27,68.86516611,18.38376084
NOR586,NOR,586,Harstad,HARSTAD,15635,17068,18632,393.98,19.49,17.98,1.51,3.92,3.96,-0.03,68.65052922,16.55103453
GRL589,GRL,589,Qasigiannguit,QASIGIANNGUIT,1612,1517,1428,25.77,18.86,18.48,0.38,3.51,4.05,-0.54,68.82487655,-51.16407819
NOR594,NOR,594,Borkenes,BORKENES,1679,1614,1520,27.19,18.04,18.37,-0.33,4.81,4.25,0.56,68.7641146,16.21765441
NOR598,NOR,598,Sortland,SORTLAND,3936,4147,4417,177.06,18.93,18.60,0.33,2.81,3.67,-0.86,68.6992184,15.37261673
GRL600,GRL,600,Aasiaat,AASIAAT,3308,3276,3245,19.67,13.07,12.79,0.29,3.85,3.19,0.66,68.70328918,-52.85440078
NOR613,NOR,613,Stokmarknes,STOKMARKNES,4556,4799,5113,91.64,18.61,17.78,0.83,4.22,5.60,-1.38,68.54081803,14.87164672
NOR614,NOR,614,Bjerkvik,BJERKVIK,1400,1346,1268,65.41,21.58,20.53,1.05,0.57,2.40,-1.83,68.5559944,17.56103414
NOR625,NOR,625,Narvik,NARVIK,13873,13964,14056,109.93,19.39,20.51,-1.13,2.85,1.39,1.46,68.4170223,17.46776343
NOR632,NOR,632,L?dingen,LODINGEN,2010,1933,1820,20.61,21.58,20.65,0.93,2.12,3.99,-1.87,68.42073654,15.95447537
CAN636,CAN,636,Inuvik,INUVIK,2477,2658,2845,120.18,23.54,23.86,-0.32,9.33,7.32,2.00,68.34078076,-133.65373
NOR647,NOR,647,Evje,EVJE,4872,4853,4809,459.09,19.51,16.30,3.21,5.68,6.45,-0.77,68.18106948,13.6621683
RUS650,RUS,650,Moncegorsk,MONCEGORSK,81763,83049,84100,703.95,24.13,22.49,1.64,5.70,5.92,-0.22,68.04830016,33.07353038
NOR652,NOR,652,Svolvær,SVOLVAER,5461,5578,5715,61.97,20.49,18.48,2.00,5.43,5.61,-0.18,68.24585344,14.4946683
NOR664,NOR,664,Kj?psvik,KJOPSVIK,1147,1103,1038,26.54,18.97,18.90,0.07,5.34,5.53,-0.18,68.09960628,16.38531674
SWE684,SWE,684,Kiruna,KIRUNA,21519,20299,19148,438.19,20.86,21.09,-0.23,4.81,5.06,-0.25,67.84249108,20.29419918
RUS707,RUS,707,Apatity,APATITY,100971,102732,104200,756.86,23.04,22.53,0.51,4.34,5.30,-0.96,67.59663257,33.69532345
RUS711,RUS,711,Vorkuta,VORKUTA,138350,125863,114500,957.23,30.03,30.80,-0.77,3.35,2.39,0.96,67.53073558,63.9466964
RUS717,RUS,717,Kovdor,KOVDOR,24108,24071,23800,241.45,22.22,22.50,-0.28,4.18,3.19,0.99,67.53732953,30.54546048
NOR752,NOR,752,Fauske,FAUSKE,5190,5469,5825,287.46,21.45,20.39,1.05,4.38,2.94,1.44,67.31759267,15.44320198
NOR755,NOR,755,Bod?,BODO,34788,35990,37288,254.20,19.92,19.37,0.55,3.75,4.05,-0.31,67.29458199,14.60461333
SWE770,SWE,770,Pajala,PAJALA,2233,2157,2084,99.07,20.55,20.58,-0.04,4.37,4.41,-0.04,67.22074024,23.32320594
SWE772,SWE,772,Gällivare,GALLIVARE,19681,17787,16081,399.92,20.86,20.43,0.43,4.02,4.41,-0.40,67.14106026,20.73193144
RUS775,RUS,775,Kandalak?a,KANDALAKSA,46089,46019,45500,207.90,22.13,21.65,0.48,5.37,5.81,-0.44,67.16462624,32.3859302
NOR787,NOR,787,Rognan,ROGNAN,2169,2285,2434,151.31,21.08,21.33,-0.26,0.02,1.09,-1.07,67.04665754,15.37581035
GRL808,GRL,808,Sisimiut,SISIMIUT,4871,5003,5138,44.82,20.80,16.13,4.67,0.92,2.10,-1.18,66.95024924,-53.65916455
USA811,USA,811,Kotzebue,KOTZEBUE,2751,2912,3082,105.11,21.79,22.16,-0.37,7.22,8.59,-1.37,66.89936712,-162.5915102
NOR814,NOR,814,?rnes,ORNES,3115,2996,2820,216.61,19.94,16.59,3.35,0.78,1.04,-0.25,66.81140912,13.92192848
RUS832,RUS,832,Salehard,SALEHARD,59966,59875,59200,469.81,30.11,30.08,0.03,6.91,7.02,-0.11,66.64016163,66.44125129
FIN838,FIN,838,Rovaniemi,ROVANIEMI,34853,36934,45804,718.68,22.66,22.16,0.50,5.16,4.21,0.96,66.50827989,25.6964025
SWE848,SWE,848,Jokkmokk,JOKKMOKK,3537,3365,3201,127.67,21.92,21.29,0.63,6.51,6.00,0.51,66.60011562,19.839832
SWE862,SWE,862,Haparanda,HAPARANDA,7526,7138,6773,299.72,20.94,21.12,-0.18,5.68,5.98,-0.29,66.11440214,23.83552679
FIN862,FIN,862,Kemi,KEMI,46389,46238,46164,930.25,20.93,21.39,-0.46,6.57,5.62,0.95,65.92300775,24.37648972
NOR876,NOR,876,Mo i Rana,MOIRANA,21419,20720,20004,309.60,20.57,21.44,-0.88,-0.10,0.04,-0.14,66.31355315,14.19019357
SWE878,SWE,878,Överkalix,OVERKALIX,1146,1072,1003,127.88,20.73,21.31,-0.58,7.97,7.24,0.73,66.3294956,22.80292153
NOR890,NOR,890,Hemnesberget,HEMNESBERGET,1414,1359,1280,18.11,18.34,19.74,-1.41,0.10,1.98,-1.87,66.21815225,13.64231946
NOR894,NOR,894,Nesna,NESNA,1409,1355,1276,14.53,18.49,18.76,-0.27,0.27,4.14,-3.87,66.19535534,13.04636523
CAN902,CAN,902,Pangnirtung,PANGNIRTUNG,1096,1176,1259,25.54,16.96,20.30,-3.34,2.93,1.06,1.87,66.14355932,-65.68930836
ISL903,ISL,903,?safjor?ur,ISAFJORDUR,2969,2995,3021,188.17,21.15,20.81,0.34,0.86,0.91,-0.05,66.08331146,-23.18911937
ISL904,ISL,904,Siglufjör?ur,SIGLUFJORDUR,1883,1702,1539,77.62,16.83,14.70,2.13,0.65,0.77,-0.12,66.13655849,-18.91085184
SWE913,SWE,913,Arjeplog,ARJEPLOG,2293,2135,1988,61.35,20.38,19.63,0.75,8.10,9.40,-1.30,66.06274935,17.90186909
NOR917,NOR,917,Sandnessj?en,SANDNESSJOEN,4984,5251,5593,124.20,19.51,18.54,0.97,3.91,5.40,-1.49,66.01149127,12.57945549
ISL920,ISL,920,?lafsfjör?ur,OLAFSFJORDUR,1350,1197,1060,47.71,14.30,14.89,-0.59,-0.19,-0.59,0.40,66.0679407,-18.66562744
ISL923,ISL,923,Húsavík,HUSAVIK,2641,2535,2433,47.54,20.10,21.50,-1.40,1.68,1.51,0.17,66.04015728,-17.30441296
FIN927,FIN,927,Kuusamo,KUUSAMO,18126,18687,17729,190.29,22.07,21.82,0.25,5.99,6.03,-0.04,65.98996117,29.1701334
RUS932,RUS,932,Inta,INTA,50690,50595,50500,14.90,29.75,29.72,0.03,6.69,4.95,1.74,66.04036809,60.16083857
ISL940,ISL,940,Dalvík,DALVIK,2177,2101,2027,46.11,16.34,15.17,1.17,-1.05,-0.66,-0.40,65.97108377,-18.59024573
NOR943,NOR,943,Mosj?en,MOSJOEN,8332,8778,9351,269.99,21.17,22.20,-1.02,1.59,1.56,0.04,65.86155816,13.24157137
SWE948,SWE,948,Töre,TORE,1560,1393,1244,45.11,21.05,21.28,-0.22,7.63,7.82,-0.19,65.91481908,22.64344376
SWE949,SWE,949,Kalix,KALIX,9156,8817,8495,293.39,21.21,21.11,0.10,7.18,7.33,-0.15,65.85272349,23.23925844
SWE966,SWE,966,Luleå,LULEA,77759,78025,77522,911.49,21.16,21.10,0.06,8.61,8.48,0.13,65.68992511,21.94076339
SWE967,SWE,967,Sävast,SAVAST,3280,3211,3143,73.94,20.91,20.96,-0.05,8.70,8.36,0.35,65.86084883,22.28688747
ISL982,ISL,982,Sau?árkrókur,SAUDARKROKUR,3083,2845,2626,54.20,19.87,20.94,-1.07,0.95,0.84,0.11,65.73653051,-19.65051039
ISL984,ISL,984,Akureyrí,AKUREYRI,14307,14895,15507,225.82,20.52,20.60,-0.08,-0.30,-0.23,-0.07,65.67421539,-18.10687181
SWE992,SWE,992,Älvsbyn,ALVSBYN,5561,5365,5176,112.81,22.17,22.56,-0.39,7.61,7.07,0.54,65.67823896,20.96790133
SWE1006,SWE,1006,Arvidsjaur,ARVIDSJAUR,5465,5087,4735,154.56,21.21,20.99,0.22,5.50,5.33,0.17,65.59159187,19.21887336
GRL1007,GRL,1007,Tasiilaq,TASIILAQ,1465,1587,1719,14.15,19.48,18.60,0.88,-1.26,-1.68,0.41,65.61549909,-37.6212809
SWE1018,SWE,1018,Sorsele,SORSELE,1432,1392,1353,75.72,21.58,21.27,0.31,7.04,6.29,0.75,65.53774802,17.52391565
NOR1024,NOR,1024,Br?nn?ysund,BRONNOYSUND,3748,3949,4207,150.43,22.22,19.89,2.33,0.30,3.78,-3.48,65.4024568,12.23591497
SWE1025,SWE,1025,Piteå,PITEA,27176,26817,26469,466.29,22.01,21.85,0.16,8.54,8.24,0.30,65.34415904,21.41697459
GRL1030,GRL,1030,Maniitsoq,MANIITSOQ,3135,3039,2946,6.33,20.07,15.60,4.47,-0.07,2.00,-2.06,65.43163012,-52.93186964
FIN1047,FIN,1047,Oulu,OULU,135720,149176,185935,1337.33,22.25,22.47,-0.22,7.69,6.97,0.72,65.00482862,25.57909157
ISL1055,ISL,1055,Egilssta?ir,EGILSSTADIR,1583,1597,1611,85.07,23.91,24.45,-0.53,0.92,-0.08,1.01,65.25807378,-14.40149509
ISL1066,ISL,1066,Neskaupsta?ur,NESKAUPSTADUR,1614,1518,1428,50.85,22.09,21.63,0.46,3.15,1.81,1.34,65.14178666,-13.7224443
RUS1069,RUS,1069,Pecora,PECORA,57284,57691,58100,7.89,29.54,28.20,1.34,7.71,6.90,0.80,65.14749242,57.21708901
SWE1075,SWE,1075,Storuman,STORUMAN,2723,2570,2426,84.46,20.94,20.54,0.41,6.05,5.71,0.34,65.08839451,17.13057848
ISL1080,ISL,1080,Stykkishólmur,STYKKISHOLMUR,1320,1282,1246,15.63,16.31,15.89,0.42,2.93,3.61,-0.68,65.05423466,-22.73323097
SWE1088,SWE,1088,Jörn,JORN,1396,1188,1011,67.36,21.91,21.81,0.09,5.86,5.47,0.39,65.0532839,20.05810181
USA1105,USA,1105,Fairbanks,FAIRBANKS,48946,49191,50276,1232.21,26.55,26.41,0.13,6.78,5.45,1.33,64.80668248,-147.5387312
NOR1120,NOR,1120,Kolvereid,KOLVEREID,1671,1606,1512,57.20,23.51,21.97,1.54,1.38,2.09,-0.71,64.87123324,11.59727482
SWE1121,SWE,1121,Skellefteå,SKELLEFTEA,44152,44321,43454,766.96,22.47,21.92,0.55,8.11,8.07,0.04,64.72775829,20.97494006
FIN1122,FIN,1122,Suomussalmi,SUOMUSSALMI,12509,12124,11003,128.64,22.44,22.83,-0.39,7.75,6.45,1.30,64.88205168,28.91640867
ISL1128,ISL,1128,?lafsvík,OLAFSVIK,941,990,1041,49.87,19.16,21.54,-2.38,3.19,3.18,0.01,64.89092653,-23.77374592
NOR1131,NOR,1131,R?rvik,RORVIK,2243,2363,2517,76.77,22.44,19.85,2.59,0.57,2.11,-1.53,64.85609873,11.25478801
SWE1133,SWE,1133,Boliden,BOLIDEN,2198,1894,1632,83.49,20.99,21.88,-0.88,7.68,6.79,0.89,64.87206929,20.37599243
RUS1157,RUS,1157,Archangel,ARCHANGEL,435032,422205,409317,1038.27,25.36,24.99,0.37,9.61,9.08,0.53,64.53176448,40.5886186
FIN1160,FIN,1160,Raahe,RAAHE,20852,20322,19807,261.58,23.09,22.65,0.44,8.02,7.46,0.56,64.59570348,24.45492129
RUS1162,RUS,1162,Kostomuk?a,KOSTOMUKSA,32211,32163,31800,358.44,23.15,23.01,0.14,5.94,5.10,0.84,64.64264783,30.69161842
SWE1178,SWE,1178,Vilhelmina,VILHELMINA,4384,4105,3844,85.36,20.54,20.98,-0.45,6.49,5.61,0.88,64.63305533,16.66508192
SWE1188,SWE,1188,Lycksele,LYCKSELE,9824,9240,8691,153.68,22.17,22.06,0.11,7.73,7.25,0.48,64.58171262,18.68655131
USA1202,USA,1202,Nome,NOME,3500,3502,3505,138.52,26.48,27.94,-1.46,4.71,3.88,0.83,64.52005074,-165.4079478
ISL1210,ISL,1210,Borgarnes,BORGARNES,1615,1686,1759,32.07,21.16,22.71,-1.55,3.58,2.48,1.10,64.55330364,-21.93303419
SWE1211,SWE,1211,Burträsk,BURTRASK,1877,1782,1692,70.86,22.24,22.23,0.00,8.61,8.15,0.46,64.52251841,20.64787226
NOR1222,NOR,1222,Namsos,NAMSOS,8973,9339,9800,427.94,23.68,24.08,-0.40,0.43,0.55,-0.12,64.45667629,11.89987561
FIN1250,FIN,1250,Kajaani,KAJAANI,29587,29624,31238,366.93,23.81,23.29,0.52,5.77,6.95,-1.17,64.26951011,27.84963092
ISL1261,ISL,1261,Akranes,AKRANES,4586,4989,5428,22.47,20.26,20.13,0.13,0.49,3.62,-3.13,64.32526182,-22.01755307
ISL1273,ISL,1273,Höfn,HOFN,1850,1808,1767,46.93,20.06,24.73,-4.67,-4.69,-5.22,0.52,64.26752459,-15.20021756
SWE1275,SWE,1275,Dorotea,DOROTEA,1978,1804,1645,72.16,21.41,21.73,-0.31,6.23,6.00,0.23,64.2658082,16.41370481
ISL1285,ISL,1285,Reykjavík,REYKJAVIK,144117,158067,174294,454.47,24.30,24.87,-0.58,0.71,0.61,0.11,64.11785088,-21.7748005
SWE1295,SWE,1295,Vindeln,VINDELN,2574,2513,2453,73.98,22.30,22.03,0.26,7.94,7.58,0.36,64.20575708,19.70950395
GRL1297,GRL,1297,Nuuk,NUUK,12217,12849,13513,33.47,16.58,13.78,2.80,1.23,0.93,0.30,64.1726966,-51.68015794
SWE1301,SWE,1301,Robertsfors,ROBERTSFORS,2509,2260,2036,54.96,21.72,21.23,0.49,7.90,7.79,0.11,64.18573078,20.8746226
SWE1310,SWE,1310,Åsele,ASELE,2350,2211,2080,69.98,22.40,21.79,0.61,7.49,7.04,0.45,64.16371994,17.34707265
FIN1319,FIN,1319,Sotkamo,SOTKAMO,11603,11477,11106,180.14,23.98,23.52,0.46,8.08,7.48,0.60,64.13474453,28.2782504
FIN1322,FIN,1322,Kuhmo,KUHMO,12878,12356,11167,112.12,22.80,22.60,0.21,7.56,7.18,0.38,64.12301493,29.51568289
FIN1333,FIN,1333,Ylivieska,YLIVIESKA,9053,9753,10508,204.32,21.83,21.98,-0.15,7.04,6.60,0.44,64.06065116,24.58543817
NOR1338,NOR,1338,Steinkjer,STEINKJER,26446,27414,28535,566.69,22.30,22.38,-0.08,3.96,4.06,-0.10,63.85270681,11.44264934
ISL1342,ISL,1342,Keflavík,KEFLAVIK,11803,12514,13271,200.74,21.39,23.54,-2.15,2.52,2.85,-0.34,63.97872352,-22.57123587
NOR1343,NOR,1343,Malm,MALM,1374,1321,1244,35.68,23.47,22.76,0.72,3.06,4.62,-1.56,64.07010753,11.22943304
ISL1359,ISL,1359,Selfoss,SELFOSS,5028,5720,6507,162.50,24.79,23.62,1.17,1.99,1.52,0.47,63.97365918,-21.11615003
RUS1365,RUS,1365,Onega,ONEGA,25121,25083,24800,131.35,24.31,25.10,-0.79,9.74,9.87,-0.13,63.93025285,38.09180423
SWE1371,SWE,1371,Umeå,UMEA,68972,77148,79597,914.66,23.28,22.56,0.72,8.68,8.58,0.10,63.84646873,20.13756668
FIN1381,FIN,1381,Nivala,NIVALA,11249,11379,11079,147.26,23.21,22.78,0.44,7.25,6.83,0.42,63.91069012,24.97247078
NOR1384,NOR,1384,Å,A,1218,1171,1103,14.31,20.59,22.10,-1.50,3.42,2.85,0.56,63.95969257,10.22641962
SWE1387,SWE,1387,Bjurholm,BJURHOLM,1102,1076,1051,28.68,22.70,22.05,0.65,7.49,7.71,-0.22,63.93146812,19.22301833
FIN1388,FIN,1388,Kokkola,KOKKOLA,51885,53408,53249,669.68,23.25,22.29,0.96,9.58,9.87,-0.29,63.76376323,23.0435547
USA1391,USA,1391,Healy,HEALY,487,698,1000,95.59,23.98,23.39,0.59,6.07,5.91,0.16,63.89481058,-148.9910911
ISL1407,ISL,1407,Grindavík,GRINDAVIK,1984,2137,2302,40.72,26.07,25.41,0.66,-0.63,2.29,-2.92,63.85576844,-22.44749517
ISL1408,ISL,1408,?orlákshöfn,?ORLAKSHOFN,1173,1244,1318,14.48,26.52,27.39,-0.88,0.09,0.66,-0.57,63.86365596,-21.396515
RUS1424,RUS,1424,Segezha,SEGEZHA,35048,34995,34600,90.22,23.84,22.48,1.36,9.52,10.25,-0.73,63.74733421,34.2928567
CAN1426,CAN,1426,Iqaluit,IQALUIT,4497,4825,5165,76.25,25.61,23.87,1.74,1.80,0.74,1.06,63.76763318,-68.49928944
NOR1430,NOR,1430,Brekstad,BREKSTAD,3219,3096,2914,98.94,22.24,19.76,2.48,6.12,6.62,-0.51,63.73885589,9.742744015
NOR1452,NOR,1452,Leksvik,LEKSVIK,1142,1098,1034,32.89,21.51,20.72,0.79,2.76,4.94,-2.18,63.68873887,10.6077503
SWE1457,SWE,1457,Hörnefors,HORNEFORS,2597,2585,2573,71.77,23.28,22.62,0.66,8.88,8.88,-0.01,63.64871278,19.93305951
RUS1458,RUS,1458,Uhta,UHTA,142311,139332,136120,764.17,26.41,25.91,0.49,7.17,6.25,0.92,63.55535081,53.72834782
FIN1463,FIN,1463,Iisalmi,IISALMI,15729,15815,15902,213.03,23.07,23.06,0.02,8.43,7.65,0.78,63.56836281,27.2170641
SWE1464,SWE,1464,Hammerdal,HAMMERDAL,1231,1178,1127,114.68,21.04,21.09,-0.06,4.83,4.53,0.30,63.58763666,15.3147912
NOR1476,NOR,1476,Trondheim,TRONDHEIM,158942,165482,172647,1504.27,21.68,22.31,-0.63,4.99,4.66,0.34,63.30938267,10.32935083
SWE1479,SWE,1479,Nordmaling,NORDMALING,2895,2773,2656,89.41,22.35,21.57,0.78,8.41,9.04,-0.63,63.5600103,19.44398598
ISL1511,ISL,1511,Vestmannaeyjar,VESTMANNAEYJAR,5123,4809,4515,12.50,18.07,15.82,2.25,2.34,6.48,-4.14,63.43343172,-20.27194185
SWE1519,SWE,1519,Örnsköldsvik,ORNSKOLDSVIK,32395,31244,29992,695.38,23.20,22.02,1.18,9.41,9.33,0.07,63.29979581,18.55686768
SWE1522,SWE,1522,Lit,LIT,1208,1136,1068,168.03,21.13,21.23,-0.11,4.63,4.23,0.39,63.35713503,14.85598503
SWE1525,SWE,1525,Järpen,JARPEN,1868,1645,1449,328.59,21.40,20.96,0.44,3.43,2.47,0.96,63.36778714,13.17404429
SWE1537,SWE,1537,Östersund,OSTERSUND,47523,48676,47471,845.00,21.25,20.72,0.54,6.00,6.38,-0.38,63.15556233,14.56105553
SWE1544,SWE,1544,Husum,HUSUM,2366,2039,1757,69.89,21.37,21.09,0.28,9.41,9.74,-0.33,63.34074341,19.12295805
FIN1545,FIN,1545,Lieksa,LIEKSA,17527,16752,15208,146.70,23.26,23.31,-0.05,8.08,8.66,-0.58,63.32258407,30.06294449
USA1548,USA,1548,Tok,TOK,935,1141,1393,54.70,25.77,25.05,0.72,2.38,3.85,-1.46,63.34099761,-142.9807519
NOR1562,NOR,1562,Kyrksæter?ra,KYRKSAETERORA,2127,2241,2387,43.14,22.42,22.45,-0.04,3.29,1.66,1.62,63.29357384,9.077636915
SWE1573,SWE,1573,Sollefteå,SOLLEFTEA,9891,9283,8712,293.24,22.53,22.05,0.48,8.09,7.67,0.42,63.18209665,17.17692208
FIN1596,FIN,1596,Vaasa,VAASA,72870,75436,77704,714.07,23.74,22.70,1.05,8.37,9.15,-0.79,63.04582538,21.84782614
NOR1598,NOR,1598,Kristiansund,KRISTIANSUND,18896,18866,18863,215.13,19.97,19.48,0.49,4.50,5.52,-1.02,63.06940322,7.810665536
SWE1606,SWE,1606,Hammarstrand,HAMMARSTRAND,1400,1267,1147,139.32,21.84,21.19,0.64,7.41,7.10,0.31,63.12826372,16.27595556
FIN1610,FIN,1610,Kuopio,KUOPIO,82311,86239,88435,632.21,23.31,22.58,0.73,9.54,10.24,-0.69,62.947731,27.65669399
SWE1612,SWE,1612,Kramfors,KRAMFORS,10604,9670,8820,460.70,22.96,22.23,0.73,10.22,9.68,0.54,62.93226873,17.83422171
NOR1653,NOR,1653,Skei/Surnadals?ra,SKEISURNADALSORA,1794,1891,2014,56.59,23.88,24.23,-0.36,2.30,2.37,-0.07,62.97712332,8.709749028
FIN1655,FIN,1655,Sein?joki,SEINAJOKI,70502,72751,73994,641.79,24.43,23.93,0.49,7.84,7.30,0.54,62.77790859,22.73796738
NOR1663,NOR,1663,Eide,EIDE,1259,1210,1140,68.86,20.65,21.46,-0.81,5.35,4.96,0.40,62.93095088,7.400066791
NOR1689,NOR,1689,Tingvollvågen,TINGVOLLVAGEN,1169,1124,1059,43.56,21.94,20.41,1.53,4.55,5.02,-0.47,62.91388695,8.232242695
NOR1701,NOR,1701,Molde,MOLDE,19657,20417,21215,359.66,22.57,21.14,1.43,5.29,4.89,0.40,62.788762,7.251433691
CAN1716,CAN,1716,Rankin Inlet,RANKININLET,1870,2006,2148,21.92,21.98,23.52,-1.54,4.17,4.01,0.17,62.82191925,-92.12277756
FIN1737,FIN,1737,Joensuu,JOENSUU,68788,72450,74789,588.30,24.63,23.23,1.40,9.94,11.93,-1.99,62.60609559,29.75688933
NOR1763,NOR,1763,Sunndals?ra,SUNNDALSORA,3590,3783,4029,109.64,21.38,22.34,-0.96,3.32,2.52,0.80,62.66238051,8.620373064
SWE1765,SWE,1765,Härnösand,HARNOSAND,20474,19185,17977,158.91,22.77,21.73,1.04,9.99,10.23,-0.24,62.64991175,17.89024418
FIN1783,FIN,1783,??nekoski,AANEKOSKI,9054,9329,9613,206.30,22.30,22.25,0.05,10.55,10.12,0.43,62.57720118,25.76501044
NOR1786,NOR,1786,Vestnes,VESTNES,1793,1889,2012,56.18,20.39,21.79,-1.40,6.09,5.62,0.47,62.58451277,7.114949188
NOR1787,NOR,1787,Oppdal,OPPDAL,3083,3248,3460,129.17,23.91,23.80,0.11,3.57,3.25,0.32,62.60824009,9.677833288
SWE1798,SWE,1798,Sundsvall,SUNDSVALL,83182,80320,78568,908.80,23.61,22.16,1.46,9.30,9.27,0.03,62.42041207,17.27437333
RUS1803,RUS,1803,Mirnyj,MIRNYJ,36567,36512,36100,256.52,26.34,27.65,-1.31,5.24,3.87,1.36,62.53778527,113.9829161
NOR1804,NOR,1804,Brattvåg,BRATTVAG,1819,1916,2041,31.22,19.96,19.15,0.80,5.50,6.03,-0.53,62.59268373,6.445832717
NOR1805,NOR,1805,Tomra,TOMRA,1341,1290,1214,66.42,22.82,22.15,0.67,7.81,7.19,0.62,62.57539637,6.940393923
NOR1806,NOR,1806,R?ros,ROROS,2985,3145,3350,195.18,22.05,22.45,-0.40,2.37,2.20,0.17,62.54381082,11.28478629
NOR1810,NOR,1810,Åndalsnes,ANDALSNES,3173,3217,3265,88.56,22.16,22.67,-0.51,2.62,2.93,-0.31,62.56313014,7.737732256
NOR1814,NOR,1814,Ålesund,ALESUND,48672,53750,59622,532.08,20.78,19.76,1.03,5.27,5.78,-0.51,62.39118419,6.112377923
NOR1827,NOR,1827,Skodje,SKODJE,4821,4635,4365,104.88,21.70,21.37,0.33,6.92,7.08,-0.16,62.50652242,6.712986994
SWE1828,SWE,1828,Fränsta,FRANSTA,1560,1435,1320,501.30,23.56,22.30,1.25,8.01,7.85,0.16,62.48070399,16.02419821
CAN1840,CAN,1840,Yellowknife,YELLOWKNIFE,13789,14794,15838,199.81,27.02,24.68,2.33,8.12,8.90,-0.78,62.45776779,-114.4027417
FIN1842,FIN,1842,Leppavirta,LEPPAVIRTA,11670,11592,11085,96.19,23.30,22.97,0.33,11.27,11.61,-0.34,62.47934161,27.73185737
FIN1852,FIN,1852,Kauhajoki,KAUHAJOKI,15643,15420,14831,107.69,23.27,23.57,-0.30,7.04,6.83,0.21,62.43232275,22.19314987
FIN1856,FIN,1856,Jyv?skyl?,JYVASKYLA,99895,106495,115058,697.92,22.76,21.81,0.95,10.75,10.93,-0.18,62.28772243,25.7503902
FIN1890,FIN,1890,Varkaus,VARKAUS,20203,20105,20009,338.09,24.30,23.50,0.80,10.33,11.47,-1.14,62.27599536,27.85604075
FIN1894,FIN,1894,Pieks?m?ki,PIEKSAMAKI,16569,15962,15378,183.06,23.12,22.83,0.29,10.09,9.48,0.61,62.30617288,27.13838999
NOR1904,NOR,1904,Stranda,STRANDA,2181,2298,2448,106.94,24.16,22.47,1.69,3.35,4.02,-0.67,62.30480924,6.852271283
NOR1914,NOR,1914,Tynset,TYNSET,2050,2160,2301,125.82,22.19,22.37,-0.18,5.04,3.81,1.24,62.2780391,10.76140776
FIN1923,FIN,1923,Keuruu,KEURUU,12663,12405,11870,102.07,22.79,22.69,0.10,10.38,10.01,0.37,62.24832296,24.71354608
FRO1935,FRO,1935,Tórshavn,TORSHAVN,23417,22012,26759,337.90,18.95,17.21,1.75,0.94,1.83,-0.89,62.13440597,-6.791815894
RUS1940,RUS,1940,Jakutsk,JAKUTSK,188641,197068,205870,753.92,28.00,27.02,0.98,8.08,7.47,0.61,62.04116547,129.7027861
RUS1941,RUS,1941,Kondopoga,KONDOPOGA,37175,37119,36700,176.31,24.65,24.10,0.55,9.70,10.17,-0.47,62.19502553,34.24317933
NOR1948,NOR,1948,?rsta,ORSTA,9927,10459,11141,167.50,23.09,21.48,1.60,4.27,4.26,0.01,62.17248511,6.150092646
FRO1969,FRO,1969,Vestmanna,VESTMANNA,1045,982,1194,40.24,21.36,19.37,1.98,0.72,0.74,-0.02,62.14804845,-7.139427948
FIN1975,FIN,1975,Kitee,KITEE,11350,11058,10412,172.19,24.76,23.95,0.81,10.83,11.04,-0.22,62.105565,30.05755105
NOR2000,NOR,2000,Dombås,DOMBAS,1227,1180,1111,118.71,23.28,25.17,-1.89,2.30,1.93,0.37,62.05237513,9.167351374
SWE2011,SWE,2011,Gnarp,GNARP,1248,1127,1018,64.79,23.65,23.63,0.02,8.66,9.11,-0.45,62.05283709,17.25736735
SWE2016,SWE,2016,Sveg,SVEG,2903,2812,2724,120.39,22.47,21.34,1.13,6.56,7.03,-0.47,62.03484483,14.36402573
GRL2029,GRL,2029,Paamiut,PAAMIUT,2219,2059,1911,20.35,19.39,13.57,5.81,-6.56,-0.95,-5.61,62.00139606,-49.64979839
NOR2038,NOR,2038,Mål?y,MALOY,2670,2813,2997,75.15,22.00,20.43,1.57,6.22,7.24,-1.02,61.94890253,5.12914221
NOR2043,NOR,2043,Nordfjordeid,NORDFJORDEID,2181,2298,2448,103.57,23.96,21.88,2.08,2.54,4.02,-1.48,61.92602181,5.963796109
FIN2045,FIN,2045,J?ms?,JAMSA,15894,16124,15537,280.36,23.52,22.19,1.33,10.29,10.39,-0.10,61.87715946,25.22029603
RUS2049,RUS,2049,Petrozavodsk,PETROZAVODSK,270628,268774,266933,451.94,24.11,22.86,1.25,10.48,11.42,-0.94,61.82605545,34.25456052
FIN2055,FIN,2055,Savonlinna,SAVONLINNA,23998,24650,23861,225.99,23.65,23.01,0.64,10.56,12.51,-1.95,61.88728913,29.00601239
NOR2057,NOR,2057,Stryn,STRYN,2199,2114,1991,85.32,22.55,21.84,0.71,2.02,2.21,-0.18,61.88296601,6.766281629
RUS2060,RUS,2060,Syktyvkar,SYKTYVKAR,220754,224560,228432,771.00,26.26,25.33,0.93,9.58,8.94,0.65,61.72120316,50.7847849
NOR2079,NOR,2079,Vågåmo,VAGAMO,1654,1590,1497,37.33,23.11,23.25,-0.14,5.92,3.83,2.09,61.8719188,9.112872129
SWE2083,SWE,2083,Järvsö,JARVSO,1671,1568,1471,238.47,23.29,22.57,0.72,8.10,7.76,0.33,61.79111323,16.11624209
FIN2090,FIN,2090,Kankaanp??,KANKAANPAA,13532,13466,13018,107.06,24.25,23.95,0.30,7.97,7.64,0.32,61.81652065,22.42319235
SWE2099,SWE,2099,Färila,FARILA,1661,1533,1415,93.72,23.37,23.06,0.31,6.91,7.27,-0.35,61.80344826,15.82371166
SWE2100,SWE,2100,Delsbo,DELSBO,2592,2439,2295,55.14,23.44,22.51,0.93,9.33,9.76,-0.44,61.80608262,16.56526893
NOR2110,NOR,2110,Otta,OTTA,1761,1693,1594,91.38,23.21,23.74,-0.52,6.48,3.89,2.59,61.7713459,9.539825617
SWE2111,SWE,2111,Hudiksvall,HUDIKSVALL,21754,20877,20048,377.21,24.38,23.02,1.36,9.84,10.34,-0.50,61.70059559,17.05831427
NOR2118,NOR,2118,Sandane,SANDANE,1774,1869,1991,53.20,22.33,22.18,0.16,4.21,4.01,0.20,61.77062035,6.214417947
NOR2120,NOR,2120,Svelgen,SVELGEN,1361,1308,1232,28.53,23.27,22.77,0.50,6.60,6.36,0.24,61.76760358,5.303932572
USA2123,USA,2123,Willow,WILLOW,285,687,1658,31.70,25.09,24.43,0.66,12.20,11.05,1.15,61.75235658,-150.0544887
RUS2127,RUS,2127,Sortavala,SORTAVALA,20866,20835,20600,100.88,24.99,23.34,1.65,10.91,10.52,0.39,61.71685942,30.68034111
FIN2134,FIN,2134,Mikkeli,MIKKELI,34070,35566,35793,300.55,23.35,22.91,0.44,10.66,11.05,-0.39,61.67613067,27.22944182
USA2135,USA,2135,Anchorage,ANCHORAGE,486285,528435,572916,2584.08,25.23,24.34,0.88,4.17,1.15,3.02,61.35653925,-149.6303048
RUS2145,RUS,2145,Njandoma,NJANDOMA,26032,25993,25700,143.49,24.41,23.21,1.20,7.40,7.49,-0.09,61.65652942,40.22191393
NOR2150,NOR,2150,Vinstra,VINSTRA,3654,3709,3769,358.51,23.34,23.23,0.11,6.41,4.71,1.70,61.55770502,9.952972492
FIN2155,FIN,2155,Pori,PORI,89255,87944,97030,574.97,24.35,22.84,1.51,9.48,10.02,-0.54,61.45654086,21.87104691
FIN2159,FIN,2159,Tampere,TAMPERE,327976,343318,386255,991.99,24.01,22.91,1.10,10.99,11.94,-0.95,61.44839804,23.78872095
NOR2162,NOR,2162,Flor?,FLORO,7011,7387,7869,36.66,20.76,20.53,0.24,7.82,7.61,0.21,61.60972709,5.078832101
FRO2169,FRO,2169,Vágs,VAGS,2179,2048,2490,106.88,18.91,14.83,4.08,-0.06,1.64,-1.70,61.53788632,-6.843775697
NOR2172,NOR,2172,Koppang,KOPPANG,1393,1340,1262,66.84,25.49,24.43,1.05,7.33,6.59,0.73,61.57377643,11.03215475
USA2194,USA,2194,Hooper Bay,HOOPERBAY,845,926,1014,10.23,19.89,21.40,-1.52,2.81,3.13,-0.33,61.53449271,-166.1061647
SWE2195,SWE,2195,Bollnäs,BOLLNAS,24500,22954,21506,475.48,23.10,22.44,0.65,8.76,8.79,-0.03,61.37768414,16.17973788
NOR2201,NOR,2201,F?rde,FORDE,8576,8923,9359,146.87,23.45,23.98,-0.53,2.83,3.26,-0.43,61.45346249,5.830431615
SWE2229,SWE,2229,Söderhamn,SODERHAMN,20603,19329,18170,351.20,23.73,22.36,1.36,9.64,10.83,-1.19,61.28769763,16.9983841
FIN2243,FIN,2243,Vammala,VAMMALA,10142,10256,10373,264.86,24.00,23.17,0.84,9.55,9.32,0.22,61.27104527,22.78464223
NOR2249,NOR,2249,?vre Årdal,OVREARDAL,3040,3203,3412,79.12,23.01,22.63,0.38,1.30,2.37,-1.07,61.32254503,7.811859825
RUS2251,RUS,2251,Kotlas,KOTLAS,108691,109753,110400,666.34,27.18,26.15,1.03,8.90,8.69,0.21,61.27242441,46.88544257
NOR2258,NOR,2258,Lillehammer,LILLEHAMMER,16754,17622,18534,522.90,23.62,23.19,0.43,6.83,6.23,0.61,61.19262987,10.37493022
FIN2264,FIN,2264,Lappeenranta,LAPPEENRANTA,94099,93224,94611,786.02,24.62,23.32,1.30,11.73,12.28,-0.55,61.11197161,28.46706324
FIN2268,FIN,2268,Lahden,LAHDEN,153493,156140,158459,776.59,23.47,22.90,0.57,11.73,11.66,0.07,61.0494712,25.78419019
NOR2277,NOR,2277,Sogndalsfj?ra,SOGNDALSFJORA,2386,2514,2678,131.46,22.69,21.44,1.25,6.31,6.67,-0.36,61.21046746,7.111917542
SWE2279,SWE,2279,Älvdalen,ALVDALEN,2110,1980,1858,165.96,22.26,22.08,0.18,7.94,7.81,0.13,61.18414888,14.10532221
SWE2280,SWE,2280,Kilafors,KILAFORS,1265,1206,1150,79.89,23.56,23.12,0.44,10.23,10.10,0.13,61.22909675,16.61145527
NOR2284,NOR,2284,Årdalstangen,ARDALSTANGEN,1747,1679,1581,44.27,22.54,23.24,-0.69,5.34,3.27,2.07,61.23918373,7.702000789
NOR2288,NOR,2288,H?yanger,HOYANGER,1945,2049,2183,44.37,23.85,22.84,1.02,5.19,6.06,-0.87,61.22563903,6.080702606
FIN2297,FIN,2297,Rauma,RAUMA,34106,33617,35163,217.49,23.25,22.26,0.99,10.44,10.64,-0.20,61.13605698,21.58332029
NOR2302,NOR,2302,Hermannsverk/Leikanger,HERMANNSVERKLEIKANGER,2212,2126,2002,27.87,23.58,21.55,2.03,5.27,6.25,-0.98,61.19675689,6.843470719
USA2304,USA,2304,Valdez,VALDEZ,4068,4052,4036,302.60,21.41,17.07,4.34,0.73,0.08,0.65,61.11153612,-146.3362327
NOR2310,NOR,2310,Rena,RENA,2233,2147,2022,87.01,24.85,23.93,0.92,7.81,7.27,0.54,61.14596222,11.36364295
SWE2327,SWE,2327,Orsa,ORSA,5889,5556,5242,353.91,23.45,22.55,0.89,9.26,9.42,-0.15,61.02127303,14.56254338
RUS2340,RUS,2340,Velsk,VELSK,26539,26499,26200,160.31,27.04,24.74,2.30,8.20,8.33,-0.13,61.07262816,42.09580273
NOR2341,NOR,2341,Lærdals?yri,LAERDALSOYRI,1214,1167,1099,69.43,22.97,22.37,0.60,6.22,3.95,2.27,61.0800356,7.520744566
NOR2356,NOR,2356,Viks?yri,VIKSOYRI,1248,1199,1129,36.88,20.88,21.31,-0.43,5.27,5.54,-0.27,61.07165048,6.581211656
FIN2363,FIN,2363,Helsinki,HELSINKI,1512572,1619608,1757825,2733.29,25.89,23.95,1.94,11.14,11.23,-0.09,60.46312719,24.87862027
RUS2396,RUS,2396,Podporo?je,PODPOROZJE,21271,21239,21000,193.98,24.92,23.88,1.04,9.07,8.51,0.56,60.93190526,34.11648872
NOR2397,NOR,2397,Hamar,HAMAR,76111,78533,81274,1328.23,24.62,23.06,1.56,8.11,7.82,0.29,60.82082961,11.05499758
SWE2400,SWE,2400,Norrsundet,NORRSUNDET,1176,1108,1044,91.29,23.38,22.55,0.83,9.63,10.54,-0.91,60.92222619,17.06983977
FIN2402,FIN,2402,Kouvola,KOUVOLA,104550,103836,101202,567.75,25.36,24.67,0.69,11.06,10.61,0.45,60.8434647,26.73932253
USA2412,USA,2412,Kenai,KENAI,23376,25311,27511,1176.72,24.32,24.80,-0.49,8.15,7.43,0.73,60.64850169,-151.2779001
SWE2415,SWE,2415,Leksand,LEKSAND,14580,14188,13812,452.78,23.14,22.59,0.55,9.92,9.73,0.19,60.73127729,15.05058942
SWE2416,SWE,2416,Ockelbo,OCKELBO,3186,2954,2739,77.68,25.16,24.09,1.08,9.41,9.34,0.07,60.89508568,16.7097139
CAN2436,CAN,2436,Hay River,HAYRIVER,2484,2665,2853,115.71,25.86,23.27,2.58,5.46,6.91,-1.45,60.79311336,-115.8013217
NOR2442,NOR,2442,Dokka,DOKKA,2373,2500,2663,94.16,24.30,23.47,0.83,8.03,6.65,1.37,60.83626487,10.11292787
CAN2445,CAN,2445,Whitehorse,WHITEHORSE,14466,15520,16615,414.44,25.17,24.49,0.67,4.62,4.12,0.50,60.72186239,-135.0549131
NOR2446,NOR,2446,Bergen,BERGEN,245246,255791,266994,1843.36,23.36,21.89,1.46,7.71,7.75,-0.04,60.43324791,5.419771734
FIN2447,FIN,2447,Forssa,FORSSA,17544,18339,19171,159.17,24.52,24.05,0.46,9.61,9.77,-0.16,60.81431507,23.60159187
USA2454,USA,2454,Bethel,BETHEL,4674,5057,5471,107.69,28.95,27.05,1.91,3.86,4.82,-0.95,60.80188523,-161.7933125
FIN2456,FIN,2456,Uusikaupunki,UUSIKAUPUNKI,12148,11736,11339,92.58,23.37,22.19,1.17,10.78,11.96,-1.18,60.81104992,21.47026775
FIN2457,FIN,2457,Orimattila,ORIMATTILA,14096,14211,14055,53.61,24.96,24.50,0.46,10.16,10.07,0.08,60.80618676,25.74517418
SWE2463,SWE,2463,Borlänge,BORLANGE,129301,130409,128399,958.86,24.29,23.16,1.12,10.03,9.97,0.06,60.5263358,15.64447714
SWE2464,SWE,2464,Gävle,GAVLE,120954,118795,115851,947.47,24.08,23.04,1.04,9.95,10.12,-0.18,60.62584302,16.89874448
RUS2467,RUS,2467,Lodejnoje Pole,LODEJNOJEPOLE,26741,26701,26400,148.22,24.92,24.18,0.74,9.51,8.81,0.70,60.74570182,33.6096742
RUS2479,RUS,2479,Lensk,LENSK,27856,27813,27500,194.23,22.34,21.67,0.67,6.28,6.95,-0.68,60.7291055,114.9360852
RUS2482,RUS,2482,Velikij Ustjug,VELIKIJUSTJUG,35453,35399,35000,8.66,28.71,26.07,2.63,10.35,8.81,1.54,60.76031014,46.30884187
NOR2484,NOR,2484,Gol,GOL,4140,4362,4647,320.39,23.75,23.75,0.00,6.27,4.98,1.29,60.67974578,8.749829556
RUS2485,RUS,2485,Vyborg,VYBORG,77772,78779,79800,177.20,24.68,23.81,0.87,11.16,11.40,-0.24,60.70527092,28.80971343
SWE2489,SWE,2489,Malung,MALUNG,5866,5510,5176,163.92,23.61,22.97,0.65,6.99,7.80,-0.80,60.69156675,13.67693696
GRL2491,GRL,2491,Qaqortoq,QAQORTOQ,3127,3120,3112,16.40,21.23,18.75,2.47,-7.09,-6.91,-0.18,60.72885092,-46.05089937
FIN2506,FIN,2506,Turku,TURKU,281047,293209,321587,1051.05,25.39,23.67,1.73,9.92,10.65,-0.73,60.49992942,22.26718563
NOR2508,NOR,2508,Vossevangen,VOSSEVANGEN,4722,4975,5300,175.21,23.71,24.28,-0.57,4.58,4.11,0.47,60.63259899,6.455978633
FIN2510,FIN,2510,M?nts?l?,MANTSALA,14774,15651,16628,105.30,26.25,25.51,0.74,9.79,10.01,-0.23,60.62426057,25.30492538
NOR2511,NOR,2511,Flisa,FLISA,1672,1607,1514,89.26,24.18,23.77,0.41,9.64,8.93,0.71,60.61547222,12.03631096
NOR2521,NOR,2521,Geilo,GEILO,2020,2129,2267,269.19,23.20,23.75,-0.55,4.58,4.32,0.26,60.56741139,8.253728686
FIN2524,FIN,2524,Kotka,KOTKA,68124,66565,69704,423.84,25.32,23.63,1.69,11.43,11.98,-0.55,60.55410502,27.02010501
NOR2537,NOR,2537,Dale,DALE,1286,1236,1164,39.76,24.52,24.60,-0.07,6.52,5.70,0.83,60.57564747,5.790321321
NOR2538,NOR,2538,Nesbyen,NESBYEN,1795,1891,2015,67.08,24.93,24.02,0.91,7.81,5.92,1.89,60.57220873,9.10866606
USA2544,USA,2544,Cordova,CORDOVA,2110,2276,2454,74.09,18.33,19.70,-1.38,7.26,5.98,1.28,60.54792872,-145.7529371
SWE2554,SWE,2554,Karlholmsbruk,KARLHOLMSBRUK,1360,1278,1201,23.28,22.76,22.57,0.19,9.29,9.96,-0.67,60.52031832,17.61510264
SWE2559,SWE,2559,Mockfjärd,MOCKFJARD,2348,2127,1927,38.05,24.08,23.42,0.67,8.42,9.09,-0.67,60.49930908,14.96684394
NOR2570,NOR,2570,Kirkenær,KIRKENAER,1400,1346,1268,56.84,24.78,24.13,0.65,7.08,8.38,-1.29,60.45940686,12.07452884
FIN2582,FIN,2582,Salo,SALO,23978,25136,27599,171.89,25.07,24.42,0.65,9.85,9.62,0.23,60.40989862,23.12570184
SWE2594,SWE,2594,Långshyttan,LANGSHYTTAN,2447,2146,1882,40.23,25.08,24.14,0.94,11.30,10.64,0.66,60.44966945,16.03845745
NOR2605,NOR,2605,Grua,GRUA,1684,1619,1525,160.87,25.57,23.25,2.32,8.96,8.63,0.33,60.35876745,10.57078346
FIN2607,FIN,2607,Lohja,LOHJA,64848,67240,65858,272.02,25.23,24.70,0.53,11.98,11.38,0.60,60.29967147,24.20562504
SWE2612,SWE,2612,Hedesunda,HEDESUNDA,1071,1071,1071,39.44,24.93,23.51,1.42,9.26,10.03,-0.77,60.397775,17.00600422
NOR2617,NOR,2617,Oslo,OSLO,1300982,1381352,1470065,5038.73,25.40,23.87,1.54,10.57,10.35,0.22,59.61960727,10.49646541
USA2628,USA,2628,Cohoe,COHOE,508,770,1168,66.71,22.83,22.64,0.19,8.13,7.28,0.85,60.33713649,-151.270939
SWE2635,SWE,2635,Tierp,TIERP,5276,5211,5147,90.52,24.50,24.09,0.40,9.16,9.24,-0.08,60.33348492,17.50748409
RUS2640,RUS,2640,Severouralsk,SEVEROURALSK,34237,34185,33800,391.09,27.01,25.88,1.13,9.23,9.48,-0.25,60.21769819,59.94068004
SWE2645,SWE,2645,Östhammar,OSTHAMMAR,7043,6540,6074,90.93,23.08,22.15,0.93,9.49,10.72,-1.24,60.28677281,18.3821281
SWE2662,SWE,2662,Horndal,HORNDAL,1544,1383,1239,22.38,24.36,23.71,0.65,9.55,9.74,-0.19,60.29272561,16.41480115
FIN2667,FIN,2667,Maarianhamina,MAARIANHAMINA,11103,11376,11656,174.10,23.25,22.20,1.05,10.84,12.16,-1.32,60.15237799,19.98372671
NOR2673,NOR,2673,Kongsvinger,KONGSVINGER,10784,10903,11023,115.18,23.91,23.71,0.20,9.60,8.84,0.76,60.20195271,12.02075349
RUS2674,RUS,2674,Sankt Peterburg,SANKTPETERBURG,5409500,5271902,5134917,3058.65,25.55,23.57,1.98,10.79,10.12,0.67,59.8634076,30.38045882
NOR2675,NOR,2675,Skarnes,SKARNES,2190,2106,1983,43.80,24.72,23.80,0.91,9.14,9.00,0.14,60.25194137,11.70722876
SWE2676,SWE,2676,Örbyhus,ORBYHUS,1736,1802,1871,56.46,24.22,23.88,0.34,8.32,8.77,-0.46,60.2424368,17.7004937
NOR2685,NOR,2685,H?nefoss,HONEFOSS,14235,15647,17256,233.65,25.66,23.76,1.90,10.36,10.04,0.33,60.17641655,10.28957501
SWE2691,SWE,2691,Avesta,AVESTA,17396,16071,14847,174.32,24.50,23.78,0.71,10.24,10.17,0.07,60.15941646,16.23175316
SWE2698,SWE,2698,Österbybruk,OSTERBYBRUK,2457,2330,2210,37.98,24.85,24.25,0.60,8.74,8.34,0.40,60.2009354,17.89517057
USA2701,USA,2701,Seward,SEWARD,4466,4563,4578,217.67,21.34,21.71,-0.37,2.16,0.70,1.45,60.12357666,-149.3959154
SWE2704,SWE,2704,Ludvika,LUDVIKA,29105,26331,23858,285.68,22.31,22.23,0.08,10.55,10.43,0.12,60.12739104,15.18165871
SWE2705,SWE,2705,Gimo,GIMO,3077,2844,2629,46.14,24.04,24.04,0.00,8.18,8.26,-0.08,60.17568543,18.19365673
SWE2708,SWE,2708,Ekshärad,EKSHARAD,1316,1218,1127,41.43,25.50,24.64,0.86,9.13,8.97,0.16,60.16866867,13.49780128
SWE2709,SWE,2709,Östervåla,OSTERVALA,1693,1656,1620,29.46,24.81,24.01,0.80,8.35,9.04,-0.69,60.18166695,17.18205818
SWE2719,SWE,2719,Tärnsjö,TARNSJO,1306,1279,1253,20.90,23.83,24.00,-0.17,8.83,9.39,-0.55,60.1585736,16.93347699
GBR2726,GBR,2726,Lerwick,LERWICK,7385,7142,6906,1.97,18.92,18.77,0.15,8.92,7.03,1.89,60.15762979,-1.162177913
NOR2729,NOR,2729,Årnes,ARNES,2633,2774,2955,37.94,25.53,24.64,0.89,7.81,7.84,-0.04,60.12633294,11.47295396
NOR2739,NOR,2739,Odda,ODDA,3866,4073,4338,81.32,22.48,19.22,3.26,3.44,2.58,0.87,60.08085432,6.547809876
SWE2740,SWE,2740,Hallstavik,HALLSTAVIK,4976,4802,4634,91.26,24.72,23.15,1.57,9.96,10.88,-0.93,60.0622338,18.61125982
RUS2743,RUS,2743,Uraj,URAJ,38897,38838,38400,2.68,30.25,28.55,1.70,10.00,9.08,0.92,60.12498178,64.77998365
SWE2745,SWE,2745,Hagfors,HAGFORS,7105,6378,5725,155.21,24.50,24.10,0.40,9.58,9.86,-0.28,60.03785644,13.65326555
SWE2750,SWE,2750,Fagersta,FAGERSTA,18514,17034,15673,152.91,23.44,22.77,0.67,10.54,10.47,0.07,60.023511,15.85095126
SWE2753,SWE,2753,Alunda,ALUNDA,2264,2269,2274,32.99,26.42,25.72,0.70,9.57,8.72,0.85,60.06888722,18.08695101
SWE2756,SWE,2756,Uppsala,UPPSALA,117727,128054,131959,413.83,27.60,25.66,1.94,9.58,9.38,0.20,59.88947082,17.65866849
SWE2766,SWE,2766,Björklinge,BJORKLINGE,3009,3059,3110,39.89,25.41,25.64,-0.22,9.24,8.78,0.47,60.03379523,17.55209846
NOR2779,NOR,2779,Skotterud,SKOTTERUD,1453,1397,1316,90.77,25.58,24.37,1.21,9.07,9.72,-0.64,59.97719562,12.15237328
SWE2779,SWE,2779,Charlottenberg,CHARLOTTENBERG,2210,2099,1994,59.32,25.99,24.80,1.19,9.35,9.78,-0.43,59.89268162,12.29691133
FIN2788,FIN,2788,Tammisaari,TAMMISAARI,14493,14687,14632,71.35,24.27,23.34,0.93,12.31,11.75,0.56,59.99159131,23.47216535
RUS2790,RUS,2790,Volhov,VOLHOV,51052,50975,50400,228.17,25.04,24.00,1.04,10.10,9.80,0.29,59.92191194,32.32508713
SWE2794,SWE,2794,Lesjöfors,LESJOFORS,1521,1377,1247,36.94,22.60,22.84,-0.24,10.22,10.20,0.02,59.97871837,14.18400402
RUS2799,RUS,2799,Krasnoturinsk,KRASNOTURINSK,97199,98059,98600,673.89,26.52,25.33,1.19,9.99,9.61,0.37,59.79959175,60.12490693
SWE2805,SWE,2805,Sala,SALA,12830,12469,12118,79.17,25.63,25.02,0.61,9.46,9.25,0.20,59.92573463,16.60044476
SWE2806,SWE,2806,Morgongåva,MORGONGAVA,1649,1480,1328,52.90,26.34,24.99,1.35,9.62,8.97,0.65,59.941011,16.88451063
SWE2810,SWE,2810,Kopparberg,KOPPARBERG,4172,3716,3310,94.91,22.87,22.53,0.34,9.78,9.95,-0.17,59.89352989,15.00293159
NOR2818,NOR,2818,Rjukan,RJUKAN,3148,3317,3533,155.04,24.21,24.33,-0.11,6.46,6.18,0.28,59.8895988,8.661636527
NOR2820,NOR,2820,Bj?rkelangen,BJORKELANGEN,1833,1932,2058,66.73,25.41,24.50,0.90,9.42,9.31,0.11,59.90653671,11.51093191
NOR2821,NOR,2821,Fitjar,FITJAR,1423,1368,1288,13.40,22.93,21.21,1.72,9.74,8.42,1.32,59.91872525,5.328010367
RUS2823,RUS,2823,Sosnovyj Bor,SOSNOVYJBOR,63005,62910,62200,109.72,24.56,23.51,1.05,12.53,11.63,0.90,59.87644828,29.10231303
SWE2839,SWE,2839,Norrtälje,NORRTALJE,15096,15633,16189,114.62,25.12,24.12,1.00,9.75,9.93,-0.18,59.77967567,18.7045183
NOR2844,NOR,2844,Husnes,HUSNES,3901,3924,3937,55.73,22.84,22.28,0.56,8.46,8.07,0.38,59.82764181,5.763161788
SWE2846,SWE,2846,Munkfors,MUNKFORS,4302,3811,3376,91.06,24.97,24.17,0.81,9.73,10.30,-0.57,59.82755836,13.5286054
SWE2847,SWE,2847,Virsbo,VIRSBO,1949,1782,1629,11.16,23.17,23.45,-0.28,10.27,10.34,-0.07,59.8733871,16.06798307
SWE2859,SWE,2859,Skinnskatteberg,SKINNSKATTEBERG,3170,2808,2487,34.04,22.76,22.72,0.04,10.31,9.70,0.60,59.83273133,15.69911892
NOR2861,NOR,2861,Leirvik,LEIRVIK,15315,15786,16273,156.01,23.01,21.43,1.58,8.52,8.63,-0.11,59.78833737,5.33281363
USA2870,USA,2870,Anchor Point,ANCHORPOINT,866,1264,1845,60.50,22.13,21.56,0.57,6.89,6.51,0.38,59.779971,-151.8123219
SWE2881,SWE,2881,Åmotfors,AMOTFORS,1669,1583,1501,29.97,24.28,24.39,-0.11,10.76,10.44,0.32,59.76595401,12.36077399
SWE2882,SWE,2882,Hallstahammar,HALLSTAHAMMAR,21768,20138,18631,180.91,24.84,24.16,0.68,9.96,10.03,-0.07,59.65023753,16.23189616
SWE2887,SWE,2887,Rimbo,RIMBO,4126,4183,4241,47.68,26.17,25.58,0.59,10.39,9.68,0.71,59.74534334,18.3709544
SWE2895,SWE,2895,Knivsta,KNIVSTA,7070,7098,7126,57.99,27.16,26.90,0.26,9.87,10.12,-0.24,59.73347395,17.79333848
NOR2900,NOR,2900,Fagerstrand,FAGERSTRAND,2163,2080,1958,9.76,24.07,23.48,0.59,10.60,12.09,-1.49,59.74577097,10.61205151
SWE2901,SWE,2901,Filipstad,FILIPSTAD,7661,6951,6307,87.73,23.54,23.43,0.11,10.52,10.26,0.26,59.71427164,14.16977045
RUS2902,RUS,2902,Berezniki,BEREZNIKI,299022,289330,279960,1022.98,27.01,25.60,1.41,11.44,11.12,0.32,59.51103525,56.82021596
RUS2903,RUS,2903,Magadan,MAGADAN,148881,134218,121000,417.26,23.52,23.77,-0.25,7.02,6.54,0.48,59.61978669,150.8455964
USA2904,USA,2904,Fritz Creek,FRITZCREEK,1426,1512,1603,11.25,23.09,22.78,0.32,4.28,4.57,-0.29,59.74551972,-151.2794884
SWE2907,SWE,2907,Västerås,VASTERAS,106412,108944,110543,314.36,26.78,24.46,2.32,10.31,10.83,-0.52,59.6334023,16.53686507
SWE2908,SWE,2908,Örsundsbro,ORSUNDSBRO,1850,1813,1777,20.77,26.62,26.28,0.34,10.23,9.51,0.72,59.73261882,17.31804821
SWE2915,SWE,2915,Täby,TABY,54645,56492,57834,9.52,27.45,25.55,1.90,8.48,9.49,-1.02,59.73063023,18.50567382
RUS2918,RUS,2918,Serov,SEROV,102790,101745,100711,427.71,27.19,25.79,1.40,9.73,9.37,0.35,59.62155853,60.60217758
SWE2923,SWE,2923,Storå,STORA,2519,2288,2078,28.26,23.48,22.89,0.59,10.49,10.46,0.03,59.70088201,15.1154166
USA2927,USA,2927,Homer,HOMER,5481,5654,5748,216.48,22.18,21.12,1.06,6.80,5.93,0.88,59.65155583,-151.4866024
SWE2929,SWE,2929,Arvika,ARVIKA,14664,14237,13822,109.24,24.74,23.79,0.95,10.23,11.13,-0.90,59.66748912,12.60096738
RUS2931,RUS,2931,Tihvin,TIHVIN,65814,66750,67700,178.37,25.45,25.12,0.33,8.57,8.31,0.26,59.63967303,33.51737721
NOR2934,NOR,2934,Sauda,SAUDA,3841,4047,4311,90.14,25.87,24.98,0.89,6.63,6.33,0.30,59.64756738,6.359386657
SWE2935,SWE,2935,Stockholm,STOCKHOLM,1362267,1477938,1554146,2473.96,26.72,24.23,2.48,11.63,12.03,-0.39,59.35044024,17.9697084
SWE2940,SWE,2940,Enköping,ENKOPING,19139,19143,19147,108.71,27.48,26.38,1.10,10.17,9.98,0.19,59.64242618,17.07839501
NOR2945,NOR,2945,Skj?nhaug,SKJONHAUG,2086,2006,1888,19.53,25.23,24.75,0.48,9.00,9.73,-0.73,59.63912337,11.32693705
SWE2953,SWE,2953,Molkom,MOLKOM,1935,1920,1905,62.31,24.74,24.57,0.18,10.69,10.14,0.55,59.60737896,13.74134118
NOR2958,NOR,2958,Askim,ASKIM,21309,21921,22603,207.68,25.33,24.43,0.90,9.63,9.76,-0.13,59.58667314,11.19842395
SWE2960,SWE,2960,Nykroppa,NYKROPPA,1384,1188,1020,22.11,24.58,23.30,1.28,10.31,10.88,-0.58,59.6269775,14.30209184
NOR2966,NOR,2966,Svelvik,SVELVIK,4568,4692,4843,19.46,23.23,23.15,0.09,12.24,12.00,0.23,59.61971958,10.42390808
SWE2967,SWE,2967,Karlstad,KARLSTAD,86723,88021,87849,693.36,25.34,23.43,1.90,10.89,12.11,-1.21,59.44119971,13.38199737
RUS2973,RUS,2973,Pikaljovo,PIKALJOVO,26032,25993,25700,186.29,24.75,24.18,0.57,9.86,8.75,1.10,59.54045549,34.16192588
NOR2977,NOR,2977,Notodden,NOTODDEN,7246,7634,8132,120.60,26.00,25.02,0.98,8.96,8.94,0.02,59.57280013,9.222477089
SWE2978,SWE,2978,Kolsva,KOLSVA,2747,2644,2545,24.34,24.10,23.92,0.18,9.88,10.06,-0.17,59.59124999,15.85609413
EST2987,EST,2987,Loksa,LOKSA,4232,3845,3494,10.65,24.12,23.46,0.66,10.96,13.07,-2.11,59.58353969,25.73274026
NOR2991,NOR,2991,Tofte,TOFTE,2716,2862,3048,18.96,23.58,23.04,0.54,11.73,11.98,-0.25,59.56516631,10.57799693
SWE3003,SWE,3003,Köping,KOPING,37963,35721,33613,262.07,25.81,24.18,1.63,9.85,10.50,-0.65,59.45495927,15.97471967
RUS3005,RUS,3005,Sokol,SOKOL,44772,44704,44200,210.22,26.19,25.66,0.53,8.12,7.31,0.81,59.47240508,40.09817597
EST3008,EST,3008,Tallinn,TALLINN,501795,465169,431462,630.94,26.22,25.33,0.89,11.41,10.78,0.63,59.39136677,24.72647196
EST3013,EST,3013,Kunda,KUNDA,4921,4380,3899,45.32,25.38,24.81,0.58,11.96,11.45,0.51,59.49189596,26.53038844
NOR3026,NOR,3026,Seljord,SELJORD,1277,1228,1156,60.42,23.74,23.99,-0.25,8.84,8.46,0.38,59.48283207,8.621643245
NOR3031,NOR,3031,Sand,SAND,1328,1277,1202,21.42,23.34,24.68,-1.35,7.26,7.66,-0.41,59.4828148,6.28020522
NOR3033,NOR,3033,?rje,ORJE,1769,1701,1602,33.05,25.61,24.70,0.91,9.92,9.65,0.27,59.48341007,11.67488425
NOR3042,NOR,3042,B?,BO,2116,2229,2375,175.79,25.65,24.65,1.01,8.84,9.03,-0.18,59.41552907,9.144639625
NOR3045,NOR,3045,Haugesund,HAUGESUND,52711,56437,60655,412.34,23.99,22.68,1.31,8.82,9.01,-0.19,59.33408481,5.342964267
SWE3048,SWE,3048,Eskilstuna,ESKILSTUNA,72571,71560,70299,297.89,27.08,24.40,2.67,10.62,11.71,-1.09,59.38107856,16.497029
EST3049,EST,3049,Narva-J?esuu,NARVAJOESUU,3676,3311,2983,23.44,24.85,25.03,-0.18,11.90,11.62,0.27,59.43915652,28.05343824
NOR3060,NOR,3060,Rakkestad,RAKKESTAD,3155,3324,3541,39.74,24.87,24.50,0.37,9.61,9.71,-0.10,59.42830385,11.34600908
SWE3061,SWE,3061,Fellingsbro,FELLINGSBRO,1979,1732,1516,21.83,24.64,23.94,0.70,9.95,9.89,0.06,59.43566108,15.58499219
EST3067,EST,3067,Kohtla-J?rve,KOHTLAJARVE,88377,78123,69068,459.11,27.03,25.49,1.55,10.65,10.80,-0.15,59.35481958,27.23534025
RUS3068,RUS,3068,Kingisepp,KINGISEPP,52876,52795,52200,190.21,25.29,24.92,0.38,10.55,9.92,0.63,59.38485844,28.56099678
SWE3075,SWE,3075,Årjäng,ARJANG,3376,3299,3224,54.59,24.48,23.89,0.60,9.45,10.09,-0.64,59.39529369,12.13846796
EST3077,EST,3077,Sillam?e,SILLAMAE,20229,18653,17199,67.88,26.84,26.76,0.08,10.72,11.28,-0.56,59.36555216,27.73049134
EST3078,EST,3078,Narva,NARVA,79992,74120,68680,71.98,26.51,24.18,2.33,11.01,12.66,-1.65,59.37371734,28.11964684
SWE3081,SWE,3081,Strängnäs,STRANGNAS,11237,11617,12010,80.37,26.36,25.36,1.01,11.66,12.21,-0.54,59.36818363,17.02599412
SWE3084,SWE,3084,Karlskoga,KARLSKOGA,31106,30177,28579,214.56,24.07,23.11,0.96,9.95,10.03,-0.08,59.30257143,14.4912076
SWE3089,SWE,3089,Örebro,OREBRO,107290,111932,116172,751.44,25.35,23.74,1.61,10.41,10.27,0.14,59.19455568,15.13428688
EST3090,EST,3090,Rakvere,RAKVERE,19557,18285,17097,137.92,26.94,26.72,0.22,10.71,10.40,0.30,59.34018107,26.38339137
SWE3100,SWE,3100,Kristinehamn,KRISTINEHAMN,20714,19274,17934,104.18,25.11,23.57,1.54,10.47,11.10,-0.63,59.32384483,14.10063794
SWE3101,SWE,3101,Stallarholmen,STALLARHOLMEN,1388,1394,1400,5.95,24.37,24.36,0.01,11.22,12.30,-1.08,59.36340165,17.22181372
EST3106,EST,3106,Paldiski,PALDISKI,5047,4535,4248,13.76,24.06,22.97,1.08,12.84,12.43,0.42,59.34811399,24.0842253
RUS3108,RUS,3108,Vologda,VOLOGDA,283742,287482,291271,757.69,27.31,25.84,1.47,8.65,8.31,0.34,59.21228159,39.8580043
EST3112,EST,3112,Kehra,KEHRA,3969,3577,3224,29.78,25.99,26.23,-0.24,9.66,9.30,0.35,59.33439664,25.34484513
NOR3119,NOR,3119,Ulefoss,ULEFOSS,2396,2524,2689,90.73,25.75,24.72,1.03,9.96,9.65,0.31,59.28756394,9.177159256
NOR3123,NOR,3123,Lervik,LERVIK,1301,1251,1178,20.62,25.02,24.70,0.32,12.48,12.05,0.43,59.27692054,10.77467241
USA3127,USA,3127,Haines,HAINES,1238,1497,1811,78.59,19.93,20.71,-0.78,1.53,2.65,-1.12,59.24513688,-135.4470911
SWE3129,SWE,3129,Mariefred,MARIEFRED,6610,6552,6494,86.93,25.22,24.48,0.73,11.44,11.88,-0.44,59.26278411,17.17394488
EST3130,EST,3130,Tapa,TAPA,10035,8239,6765,85.14,28.88,27.26,1.61,9.95,10.00,-0.05,59.2611952,25.94436489
RUS3132,RUS,3132,Cerepovec,CEREPOVEC,310169,311013,311861,743.39,24.87,24.19,0.68,10.73,10.96,-0.23,59.16334012,37.81540361
SWE3144,SWE,3144,Björneborg,BJORNEBORG,1727,1523,1343,24.12,23.00,23.48,-0.48,10.27,9.99,0.28,59.24254545,14.24935772
SWE3155,SWE,3155,Odensbacken,ODENSBACKEN,1505,1450,1397,52.36,24.96,23.46,1.50,10.05,12.03,-1.98,59.17333115,15.51305255
SWE3164,SWE,3164,Fjugesta,FJUGESTA,2085,2038,1992,33.00,24.50,24.43,0.07,9.96,10.10,-0.14,59.1736053,14.86926985
SWE3169,SWE,3169,Säffle,SAFFLE,10542,9910,9316,101.47,25.27,23.56,1.72,10.89,11.66,-0.77,59.1432053,12.94489323
NOR3172,NOR,3172,Stavanger,STAVANGER,182922,201069,221858,1103.02,24.48,23.32,1.16,8.47,8.74,-0.28,58.79368869,5.771340432
EST3174,EST,3174,Tamsalu,TAMSALU,2942,2773,2614,44.01,27.99,27.27,0.72,10.17,10.15,0.02,59.164577,26.12507444
SWE3179,SWE,3179,Hälleforsnäs,HALLEFORSNAS,1994,1863,1741,33.46,24.78,24.64,0.13,11.06,11.24,-0.18,59.15197199,16.50328129
SWE3186,SWE,3186,Dalarö,DALARO,666,822,1015,12.71,22.90,22.10,0.79,12.31,12.74,-0.43,59.1454988,18.40894162
SWE3192,SWE,3192,Malmköping,MALMKOPING,2307,2174,2049,22.91,25.78,24.78,1.01,10.95,11.28,-0.33,59.13494298,16.73108121
RUS3193,RUS,3193,Slancy,SLANCY,40416,40355,39900,161.38,25.26,24.64,0.62,10.92,10.76,0.16,59.10153414,28.12132624
NOR3200,NOR,3200,Preststranda,PRESTSTRANDA,1340,1289,1213,31.01,25.83,25.34,0.49,10.51,9.61,0.90,59.09779443,9.061800709
RUS3210,RUS,3210,Gubaha,GUBAHA,59662,59571,58900,427.26,25.44,24.82,0.62,9.78,10.03,-0.25,58.95919129,57.6143902
SWE3213,SWE,3213,Åmål,AMAL,10489,9906,9355,73.23,24.99,22.88,2.11,10.37,12.10,-1.72,59.06028735,12.68716197
USA3222,USA,3222,Dillingham,DILLINGHAM,2017,2230,2466,114.94,25.98,26.28,-0.30,4.75,5.06,-0.30,59.04282946,-158.5149352
SWE3223,SWE,3223,Pålsboda,PALSBODA,1755,1671,1591,18.98,24.11,24.24,-0.13,10.45,10.39,0.06,59.06670383,15.33846156
SWE3224,SWE,3224,Vingåker,VINGAKER,5376,4837,4352,50.44,25.94,23.99,1.95,10.61,12.29,-1.67,59.05130527,15.88487688
SWE3227,SWE,3227,Gnesta,GNESTA,5178,5130,5082,41.79,25.67,24.93,0.74,11.35,11.36,-0.02,59.04426538,17.31394947
RUS3232,RUS,3232,Kudymkar,KUDYMKAR,34845,34792,34400,152.56,29.07,27.37,1.70,8.77,8.73,0.04,59.00302092,54.66461601
SWE3235,SWE,3235,Bengtsfors,BENGTSFORS,7217,6821,6452,110.04,24.09,23.89,0.20,11.70,11.26,0.44,58.9931825,12.25880139
SWE3243,SWE,3243,Katrineholm,KATRINEHOLM,22171,21746,21329,101.54,25.01,24.36,0.65,11.84,11.42,0.42,58.98915778,16.22043777
EST3244,EST,3244,Rapla,RAPLA,6222,5985,5758,101.78,27.46,27.43,0.03,9.20,8.62,0.58,58.97884102,24.82600743
GBR3248,GBR,3248,Kirkwall,KIRKWALL,6084,6139,6195,56.16,21.80,19.81,1.99,6.93,6.47,0.46,58.97194438,-2.963197465
SWE3249,SWE,3249,Nynäshamn,NYNASHAMN,15656,16173,16707,100.40,25.53,23.92,1.61,11.87,12.37,-0.50,58.96134102,17.90857017
SWE3252,SWE,3252,Laxå,LAXA,4201,3911,3641,80.69,23.95,23.14,0.80,9.76,10.20,-0.44,58.97154647,14.62863679
SWE3254,SWE,3254,Gullspång,GULLSPANG,1546,1358,1193,54.40,22.88,22.00,0.88,12.40,13.26,-0.87,58.96783112,14.07943031
EST3255,EST,3255,K?rdla,KARDLA,4104,3935,3773,17.54,23.02,23.10,-0.09,12.15,11.41,0.75,58.98837249,22.75202473
SWE3263,SWE,3263,Trosa,TROSA,7723,7599,7477,93.69,26.09,23.90,2.19,11.66,12.01,-0.35,58.93357525,17.51915915
EST3272,EST,3272,Haapsalu,HAAPSALU,14363,13157,12054,51.54,24.33,23.81,0.53,12.78,11.89,0.89,58.93264366,23.55738076
SWE3286,SWE,3286,Strömstad,STROMSTAD,5589,5776,5969,49.93,24.08,24.65,-0.57,10.71,9.81,0.91,58.91204038,11.93449677
NOR3292,NOR,3292,Krager?,KRAGERO,6354,6532,6748,78.13,25.00,24.28,0.72,11.75,11.59,0.16,58.89429806,9.337438924
EST3295,EST,3295,Paide,PAIDE,10733,10173,9642,96.71,27.59,27.09,0.50,9.36,9.28,0.08,58.89092394,25.55236272
SWE3298,SWE,3298,Askersund,ASKERSUND,4393,4151,3922,43.96,23.81,22.77,1.04,10.74,10.93,-0.18,58.88921135,14.91937536
NOR3307,NOR,3307,Kristiansand,KRISTIANSAND,121569,128963,137238,1250.03,24.32,23.92,0.40,10.85,10.49,0.36,58.37559905,8.419265405
SWE3308,SWE,3308,Stigtomta,STIGTOMTA,2109,2014,1923,86.99,24.87,24.34,0.53,11.47,11.67,-0.20,58.80837282,16.74788876
CAN3311,CAN,3311,Fort Nelson,FORTNELSON,3597,3859,4131,380.82,25.01,24.89,0.12,7.14,6.75,0.38,58.76311345,-122.7028199
SWE3315,SWE,3315,Hova,HOVA,1723,1570,1431,30.20,24.05,23.18,0.88,10.34,10.93,-0.58,58.85473862,14.21935459
EST3319,EST,3319,Mustvee,MUSTVEE,1970,1858,1753,10.84,23.54,23.61,-0.07,11.51,12.14,-0.63,58.84245176,26.93670109
RUS3323,RUS,3323,Lesnoj,LESNOJ,130163,129966,128500,740.69,25.02,24.13,0.89,10.07,9.64,0.43,58.71785822,59.63993435
EST3328,EST,3328,T?ri,TURI,6811,6563,6324,52.48,26.84,26.53,0.31,9.68,9.42,0.26,58.80647153,25.43537385
RUS3344,RUS,3344,Omutninsk,OMUTNINSK,29375,29331,29000,201.12,26.60,25.90,0.70,9.59,8.93,0.65,58.71363192,52.22467672
SWE3347,SWE,3347,Nyköping,NYKOPING,40237,39505,38856,203.35,25.28,24.34,0.94,11.57,11.26,0.31,58.74058811,16.99783957
RUS3354,RUS,3354,Luga,LUGA,41024,40962,40500,141.35,24.69,24.14,0.55,10.52,10.21,0.31,58.73800578,29.85588492
RUS3358,RUS,3358,Slobodskoj,SLOBODSKOJ,35048,34995,34600,228.16,28.68,26.74,1.95,9.74,9.15,0.59,58.71036473,50.1319461
EST3367,EST,3367,J?geva,JOGEVA,6976,6692,6420,50.79,27.46,25.61,1.85,9.88,10.13,-0.25,58.74206638,26.39692069
RUS3370,RUS,3370,Kirov,KIROV,531739,539394,547354,1263.94,28.81,27.49,1.32,9.46,8.74,0.73,58.56427439,49.65366095
SWE3373,SWE,3373,Mariestad,MARIESTAD,16342,15679,15043,101.03,24.81,23.36,1.44,11.31,11.76,-0.45,58.69896181,13.8621016
NOR3379,NOR,3379,Ris?r,RISOR,3968,4181,4453,22.41,23.17,23.70,-0.53,12.54,11.87,0.67,58.72151606,9.208028604
SWE3380,SWE,3380,Tanumshede,TANUMSHEDE,2902,2896,2890,77.53,25.97,25.32,0.65,10.93,11.17,-0.24,58.71477876,11.31428137
SWE3381,SWE,3381,Finspång,FINSPANG,15716,14181,12796,96.76,24.89,23.95,0.94,11.81,11.50,0.31,58.71313361,15.79371299
SWE3386,SWE,3386,Töreboda,TOREBODA,5056,4628,4236,50.39,25.36,24.52,0.85,9.82,10.05,-0.23,58.71091033,14.13144553
RUS3387,RUS,3387,Velikij Novgorod,VELIKIJNOVGOROD,228070,223476,218975,459.26,25.40,24.02,1.39,10.94,10.83,0.11,58.5865681,31.29427572
SWE3396,SWE,3396,Norrköping,NORRKOPING,96978,98909,97437,386.14,25.50,24.47,1.03,11.94,11.90,0.04,58.58940351,16.22137368
EST3404,EST,3404,P?ltsamaa,POLTSAMAA,5173,5008,4849,45.11,26.94,26.40,0.54,9.99,9.58,0.41,58.65630964,25.98047818
EST3409,EST,3409,Kallaste,KALLASTE,1346,1277,1211,5.22,24.12,24.08,0.04,12.36,14.37,-2.01,58.6581619,27.15993744
RUS3418,RUS,3418,Aldan,ALDAN,21778,21745,21500,146.28,23.81,24.40,-0.60,7.15,5.97,1.18,58.60174155,125.4004599
EST3422,EST,3422,V?hma,VOHMA,1957,1767,1596,13.41,26.91,26.75,0.16,9.73,9.59,0.15,58.63532692,25.56026911
CAN3429,CAN,3429,High Level,HIGHLEVEL,2958,3174,3397,174.81,25.75,23.92,1.83,5.35,5.60,-0.25,58.53150224,-117.1306432
RUS3434,RUS,3434,Jenisejsk,JENISEJSK,21575,21543,21300,350.37,26.51,26.55,-0.05,10.41,10.45,-0.04,58.4928871,92.15645935
SWE3436,SWE,3436,Motala,MOTALA,29629,30704,30136,111.38,24.41,23.02,1.39,12.46,12.69,-0.23,58.55604447,15.04452379
SWE3442,SWE,3442,Skärblacka,SKARBLACKA,6187,5835,5504,75.46,24.86,24.31,0.55,12.84,12.53,0.31,58.55676294,15.93879572
SWE3449,SWE,3449,Munkedal,MUNKEDAL,4063,3917,3776,114.66,25.70,25.15,0.55,10.14,10.39,-0.25,58.50435284,11.63383844
SWE3450,SWE,3450,Färgelanda,FARGELANDA,2184,2046,1917,37.17,26.26,25.00,1.26,9.99,10.09,-0.10,58.56664247,11.99592636
SWE3451,SWE,3451,Borensberg,BORENSBERG,2875,2769,2667,35.08,24.29,24.30,-0.01,11.73,11.31,0.42,58.56724605,15.28975869
SWE3456,SWE,3456,Brålanda,BRALANDA,1628,1551,1478,28.66,25.90,24.83,1.07,9.68,10.12,-0.44,58.56452013,12.35533044
SWE3457,SWE,3457,Mölltorp,MOLLTORP,1155,1116,1078,58.65,23.41,21.47,1.93,11.67,12.26,-0.59,58.53501255,14.46183844
SWE3463,SWE,3463,Götene,GOTENE,5313,4973,4655,101.79,26.21,24.48,1.73,9.37,10.15,-0.78,58.51906868,13.4843722
SWE3466,SWE,3466,Lidköping,LIDKOPING,26946,26998,27060,150.17,25.30,24.14,1.15,10.34,10.94,-0.61,58.489443,13.1995981
NOR3472,NOR,3472,Moi,MOI,1874,1802,1697,53.59,26.44,25.71,0.73,9.25,8.65,0.59,58.49583464,6.521816083
SWE3477,SWE,3477,Linköping,LINKOPING,118091,127307,128085,717.65,25.81,24.34,1.47,11.09,11.30,-0.21,58.39549893,15.47986121
EST3478,EST,3478,Suure-Jaani,SUUREJAANI,1485,1402,1324,9.41,25.57,26.19,-0.62,10.22,9.94,0.27,58.53346221,25.48233288
RUS3480,RUS,3480,Dobrjanka,DOBRJANKA,38897,38838,38400,122.67,25.83,25.49,0.33,12.22,12.06,0.16,58.49074275,56.40819935
RUS3487,RUS,3487,Buj,BUJ,29172,29128,28800,150.84,25.93,24.94,0.99,9.37,9.00,0.37,58.47736043,41.52744623
SWE3507,SWE,3507,Lysekil,LYSEKIL,15385,14552,13771,189.26,25.88,24.94,0.95,12.41,12.09,0.32,58.34084953,11.40864643
SWE3508,SWE,3508,Skövde,SKOVDE,35527,37052,37335,221.35,26.28,24.97,1.30,10.21,9.68,0.53,58.40149585,13.8702325
SWE3515,SWE,3515,Vadstena,VADSTENA,5839,5744,5651,38.31,25.95,23.42,2.53,12.40,13.40,-1.00,58.43922008,14.90972954
RUS3523,RUS,3523,Borovici,BOROVICI,60536,60967,61400,241.69,25.34,23.74,1.60,8.05,8.35,-0.30,58.38759486,33.91924122
SWE3528,SWE,3528,Tibro,TIBRO,9138,8517,7938,83.18,25.48,24.62,0.86,9.90,9.84,0.06,58.42165648,14.16551056
USA3531,USA,3531,Juneau,JUNEAU,53043,57414,61958,426.43,22.18,17.10,5.08,6.25,2.19,4.06,58.35146404,-134.5195159
RUS3533,RUS,3533,?arja,SARJA,26843,26802,26500,223.25,27.54,26.02,1.52,8.59,8.85,-0.26,58.38567759,45.48117422
EST3540,EST,3540,P?rnu,PARNU,56234,52853,49679,145.54,27.65,26.85,0.80,10.37,9.95,0.41,58.39643472,24.56714349
EST3541,EST,3541,Tartu,TARTU,112247,106564,101169,207.60,29.92,28.40,1.53,11.17,10.82,0.35,58.36721945,26.73257515
SWE3546,SWE,3546,Axvall,AXVALL,1314,1240,1170,151.68,25.97,25.07,0.90,9.66,9.67,-0.01,58.38530511,13.46672094
RUS3547,RUS,3547,Galic,GALIC,20461,20430,20200,76.66,26.77,25.07,1.70,12.01,10.55,1.45,58.36983056,42.36911629
RUS3550,RUS,3550,Kolpa?evo,KOLPASEVO,28666,28623,28300,280.39,27.37,27.16,0.20,11.68,11.54,0.14,58.3354793,82.92854553
RUS3552,RUS,3552,Ku?va,KUSVA,73742,73630,72800,577.17,25.58,24.43,1.15,9.65,9.72,-0.07,58.29367761,59.85044307
SWE3555,SWE,3555,Uddevalla,UDDEVALLA,33036,33453,33216,213.20,25.77,24.73,1.05,11.12,11.14,-0.01,58.32588507,11.91656058
SWE3556,SWE,3556,Trollhättan,TROLLHATTAN,68045,71706,72564,257.59,25.07,24.09,0.98,10.90,10.92,-0.02,58.30689572,12.30798626
EST3557,EST,3557,Viljandi,VILJANDI,22858,21781,20756,97.73,27.66,26.36,1.30,10.45,10.01,0.44,58.36478576,25.59659329
RUS3563,RUS,3563,Manturovo,MANTUROVO,21474,21442,21200,169.94,27.58,26.45,1.13,8.88,9.07,-0.19,58.33327269,44.77215005
NOR3568,NOR,3568,Liknes,LIKNES,1833,1932,2058,123.35,25.53,25.37,0.16,8.49,9.35,-0.86,58.30739212,6.936594291
NOR3571,NOR,3571,Hauge,HAUGE,1846,1945,2071,104.31,26.98,26.10,0.88,9.91,9.61,0.29,58.33242963,6.363836071
RUS3573,RUS,3573,Kotelnic,KOTELNIC,31907,31859,31500,223.17,30.99,29.31,1.68,8.86,8.27,0.59,58.31377685,48.32438626
RUS3574,RUS,3574,Cusovoj,CUSOVOJ,55768,55483,55200,364.97,26.63,25.24,1.39,10.17,10.33,-0.16,58.30377303,57.82980611
RUS3579,RUS,3579,Tobolsk,TOBOLSK,78465,87332,97200,665.32,26.51,26.28,0.23,11.17,10.58,0.59,58.232025,68.34798878
NOR3581,NOR,3581,Birkeland,BIRKELAND,1949,2053,2187,50.94,24.56,24.26,0.30,9.83,10.18,-0.34,58.32868216,8.237935399
SWE3582,SWE,3582,Grästorp,GRASTORP,3247,3122,3002,34.26,25.85,25.09,0.76,9.87,10.71,-0.84,58.33464721,12.69198798
RUS3584,RUS,3584,Lesosibirsk,LESOSIBIRSK,69387,69282,68500,553.66,26.22,25.58,0.64,10.37,10.68,-0.30,58.20595152,92.50659089
SWE3587,SWE,3587,Kvänum,KVANUM,1615,1405,1222,55.02,27.07,25.83,1.25,9.75,9.66,0.09,58.31576439,13.16440475
NOR3597,NOR,3597,Flekkefjord,FLEKKEFJORD,4755,5010,5337,55.44,25.05,24.11,0.94,11.19,10.11,1.07,58.29927899,6.669555041
SWE3598,SWE,3598,Vara,VARA,3895,3790,3688,94.84,26.86,26.01,0.84,9.56,9.64,-0.07,58.26735107,12.94665869
SWE3599,SWE,3599,Hjo,HJO,6628,6305,5998,41.99,23.77,21.59,2.19,11.21,11.36,-0.15,58.30538806,14.27316995
EST3623,EST,3623,Kuressaare,KURESSAARE,16049,15476,14925,56.82,25.64,25.69,-0.05,11.73,11.41,0.32,58.26604934,22.49705829
SWE3629,SWE,3629,Gusum,GUSUM,1430,1383,1338,25.28,24.40,24.79,-0.38,11.06,10.71,0.35,58.2693189,16.50473736
SWE3631,SWE,3631,Ödeshög,ODESHOG,2967,2866,2768,42.85,25.19,22.24,2.94,11.43,12.05,-0.61,58.2348489,14.65980918
SWE3635,SWE,3635,Henån,HENAN,1944,1889,1836,29.19,26.25,25.86,0.39,11.02,11.76,-0.74,58.22788608,11.68168873
SWE3636,SWE,3636,Boxholm,BOXHOLM,3751,3459,3190,63.34,24.52,23.67,0.85,10.60,10.79,-0.19,58.20526745,15.06457545
EST3637,EST,3637,Elva,ELVA,6296,6156,6020,43.41,26.90,27.39,-0.49,10.89,10.78,0.11,58.22289714,26.42152001
SWE3641,SWE,3641,Åtvidaberg,ATVIDABERG,8217,7620,7066,81.88,24.67,23.94,0.74,11.73,11.51,0.22,58.20518465,16.00821059
SWE3642,SWE,3642,Valdemarsvik,VALDEMARSVIK,3423,3180,2954,56.33,25.67,24.76,0.90,9.79,10.76,-0.97,58.21328207,16.60254076
CAN3646,CAN,3646,La Crète,LACRETE,1211,1299,1391,132.17,27.73,26.80,0.92,6.75,6.72,0.03,58.18460207,-116.3774854
SWE3647,SWE,3647,Falköping,FALKOPING,15946,15655,15369,119.98,25.24,25.10,0.14,9.83,9.37,0.46,58.17641196,13.56617102
SWE3653,SWE,3653,Tidaholm,TIDAHOLM,8788,8352,7938,80.13,25.66,24.63,1.03,9.13,9.50,-0.37,58.18052983,13.95133369
SWE3658,SWE,3658,Nossebro,NOSSEBRO,2060,1890,1734,39.37,26.12,25.76,0.36,10.15,9.57,0.57,58.19252001,12.7285853
RUS3663,RUS,3663,Perm,PERM,1116271,1100752,1085237,1762.18,29.34,27.51,1.84,11.49,11.26,0.23,58.00179582,56.01262705
RUS3665,RUS,3665,Glazov,GLAZOV,103758,102558,101371,245.21,32.31,31.09,1.22,9.42,9.17,0.25,58.13784309,52.66127383
NOR3669,NOR,3669,Lyngdal,LYNGDAL,3216,3388,3609,75.17,24.86,23.98,0.88,9.26,10.17,-0.91,58.14714802,7.077399294
RUS3677,RUS,3677,Lysva,LYSVA,75105,75152,75200,168.29,27.52,25.86,1.66,10.38,10.39,-0.01,58.10979535,57.80242693
RUS3680,RUS,3680,Ust-Ilimsk,USTILIMSK,108330,105039,101849,687.42,24.19,23.30,0.89,8.96,8.62,0.34,58.01572538,102.7442511
SWE3681,SWE,3681,Göteborg,GOTEBORG,613344,633664,654001,1340.59,25.96,24.42,1.55,11.70,12.35,-0.65,57.7535022,12.03547644
SWE3682,SWE,3682,Lilla Edet,LILLAEDET,5456,5176,4910,48.10,25.63,24.89,0.73,11.34,11.27,0.07,58.12930586,12.12926736
SWE3683,SWE,3683,Floby,FLOBY,1670,1589,1512,25.84,24.19,24.20,-0.01,9.88,9.36,0.52,58.13680365,13.3424623
SWE3684,SWE,3684,Rimforsa,RIMFORSA,2121,2161,2202,23.59,24.77,24.08,0.69,11.86,11.72,0.14,58.13311766,15.68691084
EST3685,EST,3685,Kilingi-N?mme,KILINGINOMME,2477,2346,2223,18.13,25.67,26.06,-0.39,10.51,10.11,0.39,58.14261878,24.95936754
RUS3688,RUS,3688,Rybinsk,RYBINSK,248709,237566,226923,420.23,26.20,24.68,1.51,10.73,11.47,-0.75,58.04828795,38.80245535
RUS3691,RUS,3691,Verhnjaja Salda,VERHNJAJASALDA,53643,53169,52700,293.60,25.56,24.51,1.06,9.67,10.23,-0.56,58.06278706,60.59340511
NOR3702,NOR,3702,Farsund,FARSUND,6143,6156,6150,99.00,24.79,23.20,1.60,10.64,10.83,-0.19,58.10249933,6.710719179
SWE3703,SWE,3703,Sollebrunn,SOLLEBRUNN,1453,1436,1419,24.48,26.31,25.19,1.12,9.51,10.21,-0.69,58.12656126,12.5436645
RUS3706,RUS,3706,Vere?cagino,VERESCAGINO,25425,25386,25100,123.01,29.37,28.23,1.14,8.85,8.63,0.22,58.08521336,54.66098446
RUS3708,RUS,3708,Tavda,TAVDA,43962,43895,43400,223.45,26.52,25.63,0.89,11.83,11.00,0.82,58.06651913,65.28024183
EST3718,EST,3718,R?pina,RAPINA,3437,3193,2967,29.04,26.81,25.85,0.97,12.36,12.85,-0.49,58.09355639,27.46822148
RUS3720,RUS,3720,Turinsk,TURINSK,22183,22150,21900,209.52,28.30,26.45,1.84,10.19,10.59,-0.40,58.03990614,63.72615644
NOR3724,NOR,3724,Mandal,MANDAL,10095,10499,10902,178.56,23.70,23.27,0.43,11.28,10.47,0.81,58.06060659,7.336237595
SWE3728,SWE,3728,Herrljunga,HERRLJUNGA,3996,3888,3783,37.23,26.22,24.92,1.30,9.74,9.67,0.06,58.08071395,13.030785
EST3729,EST,3729,M?isak?la,MOISAKULA,1331,1245,1165,13.98,27.98,26.77,1.21,9.97,10.11,-0.14,58.09151741,25.19483629
EST3730,EST,3730,P?lva,POLVA,6984,6720,6467,69.95,27.90,27.21,0.69,10.94,10.98,-0.04,58.06380136,27.0783473
SWE3735,SWE,3735,Tranås,TRANAS,14641,14336,14037,81.63,23.96,23.16,0.81,10.42,10.68,-0.25,58.03341783,14.97757816
RUS3739,RUS,3739,Ni?nij Tagil,NIZNIJTAGIL,421332,408244,395562,669.91,27.37,25.21,2.16,10.22,10.24,-0.01,57.93089871,60.02455805
SWE3750,SWE,3750,Vårgårda,VARGARDA,4862,4914,4967,44.10,25.94,25.07,0.87,9.63,9.92,-0.30,58.032758,12.81558496
RUS3753,RUS,3753,Alapajevsk,ALAPAJEVSK,48216,48143,47600,336.63,27.40,25.40,2.00,9.70,9.66,0.04,57.91073866,61.6918607
RUS3756,RUS,3756,Staraja Russa,STARAJARUSSA,41429,41366,40900,146.55,25.47,24.76,0.71,10.70,11.09,-0.39,57.99090736,31.35713481
SWE3758,SWE,3758,Gränna,GRANNA,2542,2558,2574,22.27,22.29,21.65,0.64,11.69,11.93,-0.24,58.01097836,14.47885698
SWE3764,SWE,3764,Kisa,KISA,4221,3964,3723,60.08,23.86,23.38,0.48,11.53,11.47,0.06,57.98605947,15.63629225
EST3766,EST,3766,T?rva,TORVA,3513,3353,3201,35.03,25.62,25.07,0.54,11.17,10.96,0.21,58.00514302,25.91205877
SWE3771,SWE,3771,Överum,OVERUM,1555,1432,1319,30.49,23.86,24.39,-0.52,11.14,10.93,0.22,57.99255403,16.3129894
SWE3778,SWE,3778,Skärhamn,SKARHAMN,6021,6001,5983,30.37,25.96,24.06,1.91,13.45,13.74,-0.28,57.96347495,11.58706198
SWE3786,SWE,3786,Alingsås,ALINGSAS,21698,22027,22361,97.87,25.30,24.04,1.26,11.55,11.61,-0.06,57.92365101,12.53594355
RUS3802,RUS,3802,Udomlja,UDOMLJA,33933,33882,33500,180.38,25.23,24.20,1.03,9.11,9.64,-0.54,57.89358536,35.04197957
SWE3809,SWE,3809,Jönköping,JONKOPING,91459,94786,95942,408.30,24.34,22.92,1.42,9.97,9.70,0.27,57.77011515,14.1786387
RUS3815,RUS,3815,Bologoe,BOLOGOE,34035,33983,33600,174.45,24.15,23.85,0.31,9.90,9.89,0.02,57.87992184,34.08567375
RUS3823,RUS,3823,Jaroslavl,JAROSLAVL,677239,669499,661405,1059.42,27.50,25.75,1.74,10.04,9.46,0.58,57.66328301,39.7849102
GBR3827,GBR,3827,Inverness,INVERNESS,40915,40930,40946,838.85,24.99,25.15,-0.16,8.11,7.67,0.44,57.60265709,-4.205272731
LVA3829,LVA,3829,Rujiena,RUJIENA,3959,3850,3744,34.68,30.17,26.68,3.49,10.41,10.54,-0.13,57.89561238,25.34143913
RUS3831,RUS,3831,Kostroma,KOSTROMA,278107,278645,279184,489.02,28.04,26.55,1.49,8.98,10.12,-1.14,57.77386176,40.95095777
EST3839,EST,3839,V?ru,VORU,17240,16016,14879,102.06,27.91,26.79,1.12,10.90,11.17,-0.28,57.84246557,27.0294943
RUS3840,RUS,3840,Pskov,PSKOV,203900,203399,202899,346.36,27.91,25.96,1.94,11.71,11.57,0.14,57.80919184,28.31636354
SWE3851,SWE,3851,Aneby,ANEBY,4132,3755,3412,49.38,24.99,23.76,1.24,8.83,9.82,-0.99,57.83638441,14.82036975
SWE3852,SWE,3852,Slite,SLITE,1723,1669,1617,133.69,25.96,25.10,0.86,10.72,10.66,0.06,57.76680902,18.79270121
LVA3853,LVA,3853,Mazsalaca,MAZSALACA,2777,2661,2551,18.73,27.34,27.22,0.12,10.59,10.69,-0.10,57.86140477,25.0606621
SWE3859,SWE,3859,Ulricehamn,ULRICEHAMN,9268,9166,9065,89.16,24.88,23.99,0.89,9.61,9.11,0.50,57.80676055,13.4284358
USA3866,USA,3866,Kodiak,KODIAK,8390,8279,8174,280.71,23.37,22.92,0.45,5.92,7.03,-1.11,57.77004676,-152.4729687
SWE3868,SWE,3868,Borås,BORAS,74111,74909,75779,340.54,25.18,24.24,0.93,9.73,9.71,0.02,57.722357,12.94908937
RUS3874,RUS,3874,Be?eck,BEZECK,30388,30342,30000,155.25,26.34,25.88,0.46,8.68,8.80,-0.12,57.78263085,36.6817404
SWE3886,SWE,3886,Västervik,VASTERVIK,24508,23171,21911,120.93,24.31,22.76,1.55,12.24,12.77,-0.53,57.7492258,16.60219815
LVA3887,LVA,3887,Valka,VALKA,8086,7405,6782,56.20,26.53,25.84,0.70,10.51,10.81,-0.29,57.76824503,26.02155716
EST3887,EST,3887,Valga,VALGA,17382,15778,14323,39.03,26.12,26.12,-0.01,11.12,10.68,0.44,57.78913524,26.08485084
LVA3901,LVA,3901,Salacgriva,SALACGRIVA,5978,6033,6090,21.22,24.35,24.33,0.02,12.02,12.03,-0.02,57.75859764,24.37436445
GBR3913,GBR,3913,Elgin,ELGIN,19195,19921,20675,339.61,23.77,24.04,-0.27,9.03,8.77,0.27,57.64531209,-3.373054132
DNK3914,DNK,3914,Skagen,SKAGEN,11471,10996,10540,25.11,26.84,24.56,2.28,12.62,11.96,0.66,57.72779536,10.56864917
SWE3915,SWE,3915,Vimmerby,VIMMERBY,16827,16097,15432,254.34,24.70,23.86,0.84,10.48,10.72,-0.24,57.59251881,15.84326281
RUS3920,RUS,3920,Irbit,IRBIT,49490,48689,47900,194.18,27.54,26.98,0.56,9.72,10.09,-0.37,57.68132602,63.0743897
RUS3931,RUS,3931,?ahunja,SAHUNJA,23905,23869,23600,152.43,29.92,28.03,1.89,8.40,9.32,-0.93,57.67469944,46.59389157
SWE3946,SWE,3946,Ankarsrum,ANKARSRUM,1668,1561,1461,24.24,24.61,24.31,0.30,11.06,11.37,-0.31,57.69676767,16.34778256
SWE3947,SWE,3947,Visby,VISBY,22582,22826,23074,156.49,26.16,25.90,0.25,10.89,10.34,0.56,57.62429751,18.35167916
SWE3952,SWE,3952,Hindås,HINDAS,1867,1933,2001,15.60,24.05,23.89,0.17,11.32,11.20,0.11,57.69787691,12.45268807
SWE3953,SWE,3953,Eksjö,EKSJO,10512,10111,9725,90.47,24.44,23.28,1.16,10.41,10.02,0.39,57.66599988,14.97903211
SWE3960,SWE,3960,Nässjö,NASSJO,17388,16901,16428,116.69,23.52,23.11,0.40,9.80,9.86,-0.06,57.65196792,14.70022235
SWE3967,SWE,3967,Bollebygd,BOLLEBYGD,4773,4664,4558,41.33,24.85,24.13,0.72,10.70,10.81,-0.12,57.67088272,12.5517522
RUS3973,RUS,3973,Vy?nij Volocok,VYSNIJVOLOCOK,65141,62361,59700,229.90,24.74,24.12,0.62,11.38,10.65,0.73,57.59736511,34.54911271
LVA3984,LVA,3984,Seda,SEDA,4359,3887,3470,28.50,25.35,27.25,-1.90,11.19,11.21,-0.02,57.63513894,25.71719686
DNK3992,DNK,3992,Hj?rring,HJORRING,32737,33175,33621,244.04,27.74,27.06,0.68,10.34,10.18,0.16,57.4550913,10.04504023
SWE3994,SWE,3994,Mariannelund,MARIANNELUND,1942,1767,1608,34.03,23.41,23.75,-0.34,9.40,9.81,-0.41,57.61350228,15.58321376
SWE4012,SWE,4012,Länghem,LANGHEM,1176,1107,1042,8.74,25.60,24.29,1.31,9.42,9.26,0.17,57.59616089,13.25415897
SWE4017,SWE,4017,Malmbäck,MALMBACK,1213,1138,1068,20.25,23.67,23.35,0.32,7.69,8.41,-0.72,57.58233535,14.46362908
RUS4018,RUS,4018,Igra,IGRA,25019,24981,24700,274.18,30.53,28.51,2.02,8.08,8.98,-0.90,57.48114956,53.1353297
LVA4023,LVA,4023,Valmiera,VALMIERA,29056,28396,27752,109.23,27.96,27.54,0.42,11.03,11.01,0.02,57.53589335,25.42588813
RUS4026,RUS,4026,Uglic,UGLIC,37985,37928,37500,133.34,25.78,24.62,1.17,10.89,10.30,0.59,57.52947715,38.31706512
SWE4037,SWE,4037,Kinna,KINNA,17616,17090,16588,120.99,25.24,24.30,0.94,10.25,10.31,-0.05,57.50970487,12.70392804
DNK4042,DNK,4042,Sindal,SINDAL,4207,4177,4148,55.36,27.41,26.27,1.15,9.98,10.30,-0.32,57.4987304,10.19971449
SWE4043,SWE,4043,Tranemo,TRANEMO,4822,4729,4639,71.03,25.29,24.28,1.01,8.41,8.85,-0.43,57.50963559,13.35697265
RUS4050,RUS,4050,Novouralsk,NOVOURALSK,119629,119447,118100,548.48,26.42,24.39,2.03,10.83,10.25,0.58,57.37847652,60.08152865
SWE4053,SWE,4053,Vaggeryd,VAGGERYD,7717,8109,8521,115.43,25.05,24.17,0.88,7.80,8.11,-0.31,57.46982734,14.13052549
LVA4054,LVA,4054,Limbazi,LIMBAZI,9914,9569,9237,38.28,25.05,24.67,0.37,11.11,10.60,0.51,57.51202483,24.73317381
SWE4059,SWE,4059,Svenljunga,SVENLJUNGA,3975,3679,3405,41.52,25.65,24.70,0.95,9.02,9.46,-0.44,57.49764191,13.11730787
SWE4060,SWE,4060,Bodafors,BODAFORS,2253,2127,2008,30.90,24.20,23.66,0.54,8.76,9.08,-0.32,57.50660824,14.71224314
RUS4061,RUS,4061,Kine?ma,KINESMA,104449,101740,99100,271.33,27.92,26.09,1.82,10.94,9.93,1.01,57.45507244,42.1178541
DNK4067,DNK,4067,Frederikshavn,FREDERIKSHAVN,35875,35843,35818,145.34,26.68,25.90,0.79,10.42,10.38,0.04,57.39919121,10.47131781
RUS4071,RUS,4071,Kungur,KUNGUR,77657,76571,75500,282.84,31.01,29.58,1.44,10.93,10.54,0.39,57.43609794,56.99692617
SWE4076,SWE,4076,Vetlanda,VETLANDA,16731,16145,15582,218.11,24.03,23.79,0.24,10.01,9.90,0.10,57.42549693,15.0667526
LVA4103,LVA,4103,Ventspils,VENTSPILS,49995,46863,43928,95.94,26.00,25.74,0.26,11.59,10.84,0.75,57.3932793,21.61272388
LVA4104,LVA,4104,Smiltene,SMILTENE,6383,6334,6287,41.14,28.18,26.80,1.38,10.45,10.46,0.00,57.42668526,25.90865238
LVA4111,LVA,4111,Aluksne,ALUKSNE,10774,10107,9482,36.36,25.32,25.04,0.27,12.30,11.34,0.96,57.41856207,27.05220529
SWE4123,SWE,4123,Klintehamn,KLINTEHAMN,1545,1487,1431,50.75,26.18,25.89,0.29,10.49,10.26,0.23,57.39288188,18.22645287
RUS4125,RUS,4125,Re?,REZ,42341,42277,41800,158.34,27.60,26.19,1.41,9.80,9.22,0.58,57.37089322,61.39099939
RUS4126,RUS,4126,Artjomovskij,ARTJOMOVSKIJ,41227,41164,40700,252.50,28.50,26.14,2.37,8.46,9.02,-0.57,57.34406595,61.88732261
SWE4132,SWE,4132,Målilla,MALILLA,1858,1746,1641,78.26,24.60,23.95,0.65,10.32,10.73,-0.41,57.36228519,15.83561799
SWE4133,SWE,4133,Kristdala,KRISTDALA,1110,1063,1018,18.97,24.56,23.70,0.86,11.27,11.03,0.24,57.40368057,16.204566
GBR4139,GBR,4139,Aberdeen,ABERDEEN,181870,183190,184521,848.86,24.52,24.42,0.09,8.86,8.46,0.40,57.2097441,-2.213910406
RUS4140,RUS,4140,Ostrov,OSTROV,29476,29432,29100,132.51,25.94,25.75,0.19,10.46,9.86,0.60,57.3419068,28.35940303
SWE4145,SWE,4145,Gnosjö,GNOSJO,4257,4379,4504,61.61,24.55,24.79,-0.25,8.91,8.90,0.00,57.35280263,13.75641498
RUS4147,RUS,4147,Jaransk,JARANSK,21981,21947,21700,123.82,33.03,31.28,1.75,8.49,8.79,-0.29,57.30914371,47.87484922
DNK4151,DNK,4151,L?kken,LOKKEN,1429,1490,1553,11.21,26.27,26.25,0.02,10.82,10.81,0.01,57.36537625,9.731145035
SWE4152,SWE,4152,Varberg,VARBERG,29773,30209,30664,383.46,26.05,24.78,1.27,11.00,11.77,-0.77,57.19042173,12.28136448
DNK4159,DNK,4159,Br?nderslev,BRONDERSLEV,13451,13526,13603,110.88,29.10,27.97,1.13,10.05,9.72,0.32,57.29643906,9.953740861
SWE4160,SWE,4160,Horred,HORRED,1270,1250,1230,18.06,25.63,24.63,1.00,10.76,11.01,-0.26,57.35641693,12.48086803
SWE4161,SWE,4161,Vrigstad,VRIGSTAD,1629,1553,1481,20.84,25.42,24.38,1.03,8.98,8.63,0.35,57.35875276,14.4760112
LVA4162,LVA,4162,Valdemarpils,VALDEMARPILS,2874,2837,2801,10.65,26.38,26.73,-0.36,10.47,10.26,0.21,57.36753682,22.59836119
RUS4168,RUS,4168,Gavrilov-Jam,GAVRILOVJAM,20259,20228,20000,85.77,26.20,25.01,1.20,9.41,10.00,-0.59,57.32026027,39.83285093
LVA4173,LVA,4173,Cesis,CESIS,20893,19783,18732,88.57,26.07,25.43,0.64,10.90,10.97,-0.07,57.31274059,25.29957726
SWE4176,SWE,4176,Gislaved,GISLAVED,9640,10000,10373,121.09,26.71,25.04,1.66,8.44,9.04,-0.59,57.29344652,13.58790704
SWE4178,SWE,4178,Virserum,VIRSERUM,2583,2310,2066,36.62,24.43,23.33,1.10,10.78,10.58,0.19,57.32010658,15.58759754
RUS4182,RUS,4182,Vicuga,VICUGA,48431,46891,45400,176.56,27.36,26.30,1.06,9.34,9.49,-0.14,57.2396476,41.90468388
SWE4186,SWE,4186,Stockaryd,STOCKARYD,1259,1167,1082,19.47,26.06,24.56,1.50,8.90,9.22,-0.32,57.31759012,14.59840462
RUS4198,RUS,4198,Osa,OSA,26843,26802,26500,142.36,30.48,28.68,1.80,11.27,12.30,-1.03,57.25092649,55.39126386
SWE4204,SWE,4204,Oskarshamn,OSKARSHAMN,19387,18785,18202,128.19,23.78,23.09,0.68,11.52,11.27,0.25,57.24382897,16.43632556
RUS4215,RUS,4215,Furmanov,FURMANOV,42341,42277,41800,79.42,27.73,25.91,1.82,8.60,9.59,-0.99,57.25658991,41.11692557
SWE4219,SWE,4219,Hemse,HEMSE,1919,1841,1766,85.01,27.99,26.92,1.06,9.46,10.01,-0.55,57.24752776,18.40124416
LVA4224,LVA,4224,Saulkrasti,SAULKRASTI,5485,5504,5523,23.35,24.71,25.83,-1.13,12.91,11.82,1.09,57.24715376,24.41941904
LVA4228,LVA,4228,Talsi,TALSI,12969,12668,12374,66.90,26.32,26.16,0.17,10.04,10.35,-0.30,57.24176299,22.58824492
RUS4231,RUS,4231,Tjumen,TJUMEN,479511,492268,505364,1300.26,28.47,26.88,1.59,11.17,10.33,0.84,57.1112839,65.62874574
DNK4246,DNK,4246,Aalborg,AALBORG,156778,159981,163298,589.39,29.62,28.12,1.50,10.62,10.34,0.28,57.06695458,9.905833082
LVA4248,LVA,4248,Ligatne,LIGATNE,1738,1601,1475,9.76,24.26,25.39,-1.12,10.37,10.26,0.12,57.24060455,25.05019061
RUS4254,RUS,4254,Rostov,ROSTOV,36162,36107,35700,99.78,25.97,26.48,-0.52,10.33,10.22,0.11,57.20929686,39.40805303
SWE4256,SWE,4256,Värnamo,VARNAMO,16336,16969,17627,101.43,25.91,24.66,1.25,8.72,9.10,-0.38,57.18640632,14.04387041
SWE4275,SWE,4275,Smålandsstenar,SMALANDSSTENAR,4508,4619,4733,60.07,26.19,25.37,0.81,9.29,9.35,-0.06,57.15843473,13.4096498
SWE4276,SWE,4276,Reftele,REFTELE,1200,1263,1329,29.79,26.07,26.12,-0.05,7.93,8.88,-0.95,57.17662916,13.6006435
LVA4280,LVA,4280,Gulbene,GULBENE,10278,9948,9629,57.26,27.44,26.37,1.07,9.79,9.98,-0.20,57.17041517,26.76764028
DNK4285,DNK,4285,Hjallerup,HJALLERUP,3166,3191,3217,34.45,29.17,28.46,0.72,9.86,9.88,-0.02,57.17284999,10.15089337
SWE4286,SWE,4286,Forsheda,FORSHEDA,2928,2956,2985,47.02,26.88,25.68,1.20,8.02,8.77,-0.75,57.1701702,13.78559433
SWE4287,SWE,4287,Lammhult,LAMMHULT,1756,1604,1465,31.08,23.45,23.57,-0.12,10.11,9.99,0.12,57.16487165,14.59156533
SWE4288,SWE,4288,Åseda,ASEDA,2755,2626,2503,40.97,23.72,23.50,0.21,9.34,9.29,0.05,57.16831947,15.35605276
LVA4289,LVA,4289,Sigulda,SIGULDA,11041,10883,10727,61.01,25.60,25.55,0.04,11.33,10.39,0.94,57.15570239,24.8755953
DNK4295,DNK,4295,Dronninglund,DRONNINGLUND,2824,2875,2927,29.80,27.63,27.66,-0.04,10.60,10.12,0.48,57.16048302,10.29309145
RUS4310,RUS,4310,Asbest,ASBEST,80000,80598,81200,411.27,26.80,24.99,1.81,10.08,8.96,1.12,57.04728,61.52918964
LVA4312,LVA,4312,Stende,STENDE,2122,2066,2012,25.16,25.21,25.76,-0.55,9.81,9.67,0.14,57.14060527,22.54783152
LVA4313,LVA,4313,Balvi,BALVI,9275,8959,8655,43.34,27.13,26.30,0.84,10.30,9.92,0.38,57.13280981,27.26813608
RUS4314,RUS,4314,Rodniki,RODNIKI,31097,31050,30700,96.05,27.29,26.63,0.66,9.21,9.28,-0.07,57.11153313,41.72822687
RUS4317,RUS,4317,Votkinsk,VOTKINSK,103806,102844,101890,298.56,31.59,30.51,1.08,11.23,11.42,-0.19,57.05264637,54.01831998
DNK4323,DNK,4323,Hanstholm,HANSTHOLM,2551,2513,2475,29.73,24.87,25.66,-0.79,11.34,10.21,1.13,57.10016359,8.639700721
RUS4329,RUS,4329,Asino,ASINO,31300,31252,30900,331.74,28.12,27.60,0.52,10.97,10.81,0.17,57.02850623,86.17590216
USA4331,USA,4331,Sitka,SITKA,16151,17482,18866,139.57,19.98,19.58,0.40,4.23,7.64,-3.41,57.0676205,-135.3289154
LVA4332,LVA,4332,Riga,RIGA,1028708,957014,890873,1098.60,27.26,26.09,1.17,12.04,11.50,0.54,56.92738618,24.13619885
SWE4340,SWE,4340,Bor,BOR,1418,1399,1380,16.81,24.27,23.88,0.39,9.51,10.30,-0.79,57.10915934,14.16916691
SWE4341,SWE,4341,Mönsterås,MONSTERAS,8373,8114,7866,177.69,24.01,22.67,1.35,10.95,11.47,-0.51,57.01553075,16.4273731
DNK4350,DNK,4350,Brovst,BROVST,2619,2653,2688,40.58,27.60,26.63,0.97,10.08,10.64,-0.56,57.09683151,9.526669107
LVA4352,LVA,4352,Vangazi,VANGAZI,4344,4240,4138,28.92,25.63,26.44,-0.80,10.96,10.57,0.39,57.09454829,24.5455569
RUS4353,RUS,4353,Tor?ok,TORZOK,50343,50267,49700,189.63,26.30,25.20,1.10,8.80,9.32,-0.51,57.0459962,34.99024227
DNK4359,DNK,4359,Fjerritslev,FJERRITSLEV,3236,3285,3334,34.99,28.35,26.80,1.55,9.42,10.54,-1.12,57.08904971,9.268826023
SWE4374,SWE,4374,Braås,BRAAS,1969,1791,1629,38.85,24.28,23.94,0.34,10.63,10.38,0.25,57.05827022,15.05269202
RUS4376,RUS,4376,Ivanovo,IVANOVO,477058,457827,439372,499.71,27.27,25.44,1.84,10.44,10.15,0.30,56.98605525,40.98723016
LVA4395,LVA,4395,Kandava,KANDAVA,4549,4162,3809,23.83,27.24,26.11,1.13,10.14,10.15,-0.01,57.03962529,22.7824276
SWE4403,SWE,4403,Rottne,ROTTNE,2394,2300,2210,47.14,23.58,23.64,-0.07,11.27,10.83,0.45,57.02375239,14.85202822
RUS4416,RUS,4416,Jekaterinburg,JEKATERINBURG,1574739,1572445,1569404,1985.08,27.26,24.91,2.34,9.83,9.77,0.06,56.83864858,60.48456601
DNK4419,DNK,4419,Thisted,THISTED,13698,13734,13770,81.25,26.67,25.32,1.35,10.21,11.35,-1.14,56.97631829,8.687787711
SWE4420,SWE,4420,Hyltebruk,HYLTEBRUK,4393,4016,3671,46.29,25.88,25.39,0.49,9.16,9.55,-0.39,57.00196901,13.24473123
SWE4421,SWE,4421,Moheda,MOHEDA,2104,1995,1892,39.28,25.51,24.59,0.92,8.82,9.43,-0.62,57.00231179,14.58382188
SWE4422,SWE,4422,Lenhovda,LENHOVDA,1930,1833,1741,35.54,24.18,24.11,0.06,9.63,9.29,0.34,57.00032736,15.28113199
RUS4423,RUS,4423,Tver,TVER,447655,431299,415541,590.98,27.65,26.09,1.56,11.46,10.97,0.48,56.85970983,35.90303314
SWE4429,SWE,4429,Rydaholm,RYDAHOLM,1645,1610,1576,41.17,24.37,24.30,0.07,8.77,9.12,-0.35,56.98593404,14.31571212
DNK4437,DNK,4437,Nibe,NIBE,3639,3800,3968,11.25,28.82,27.52,1.30,11.95,12.11,-0.16,56.97724894,9.660564586
DNK4444,DNK,4444,L?gst?r,LOGSTOR,4317,4433,4553,23.75,28.93,26.93,2.00,12.40,11.36,1.03,56.960167,9.283537074
DNK4445,DNK,4445,Hals,HALS,2152,2221,2292,4.79,28.41,26.76,1.65,11.98,10.72,1.26,57.00005736,10.31357916
LVA4446,LVA,4446,Kuldiga,KULDIGA,14174,13923,13678,51.95,26.56,26.44,0.12,10.89,10.37,0.52,56.96545524,21.97900856
LVA4447,LVA,4447,Tukums,TUKUMS,21193,20006,18886,88.94,26.31,26.31,0.00,11.09,10.85,0.24,56.96269547,23.16446566
RUS4448,RUS,4448,Suhoj Log,SUHOJLOG,72932,72822,72000,507.41,29.88,28.16,1.72,9.06,8.74,0.33,56.82545111,62.06967087
CAN4454,CAN,4454,Manning,MANNING,1111,1191,1275,95.56,25.52,25.09,0.43,7.71,7.51,0.20,56.93705117,-117.6150344
SWE4456,SWE,4456,Falkenberg,FALKENBERG,18040,18308,18580,247.30,27.19,25.55,1.63,10.10,10.26,-0.15,56.90774739,12.57958604
RUS4466,RUS,4466,I?evsk,IZEVSK,634776,633660,632545,730.78,32.68,30.44,2.23,10.53,9.95,0.58,56.84588108,53.27167812
LVA4476,LVA,4476,Cesvaine,CESVAINE,3580,3530,3480,17.32,26.15,25.85,0.30,10.72,9.93,0.79,56.95877317,26.31789759
RUS4480,RUS,4480,Tara,TARA,26336,26296,26000,136.87,26.01,25.53,0.48,10.98,10.09,0.89,56.8995106,74.37099642
SWE4484,SWE,4484,Växjö,VAXJO,48081,51197,53108,285.27,25.67,24.48,1.18,10.46,9.93,0.53,56.88600077,14.72006172
SWE4495,SWE,4495,Ljungby,LJUNGBY,16407,16320,16237,122.54,26.74,25.50,1.23,9.29,9.46,-0.17,56.85321754,13.95891643
RUS4499,RUS,4499,Nerjungri,NERJUNGRI,73540,73428,72600,818.60,24.47,24.80,-0.33,2.38,1.94,0.45,56.71072138,124.7482825
RUS4503,RUS,4503,Kimry,KIMRY,58581,58939,59300,135.71,26.82,25.96,0.85,9.87,10.34,-0.47,56.86124069,37.3617459
SWE4507,SWE,4507,Borgholm,BORGHOLM,3365,3279,3195,43.24,24.72,24.66,0.06,13.44,12.27,1.18,56.86794849,16.70311787
LVA4508,LVA,4508,Lubana,LUBANA,2100,2036,1974,19.23,26.57,27.28,-0.72,9.53,9.44,0.09,56.9016484,26.72245064
RUS4512,RUS,4512,Kamy?lov,KAMYSLOV,32009,31960,31600,274.26,30.40,29.07,1.32,8.50,8.76,-0.27,56.84172338,62.6566825
RUS4518,RUS,4518,Tejkovo,TEJKOVO,38998,38939,38500,101.40,27.01,25.24,1.77,10.04,10.12,-0.08,56.85657772,40.54609452
RUS4519,RUS,4519,?uja,SUJA,69365,68070,66800,152.58,27.66,26.54,1.12,10.35,10.32,0.02,56.85244328,41.36182453
LVA4525,LVA,4525,Madona,MADONA,9935,9742,9553,63.39,26.10,25.47,0.63,10.40,9.82,0.58,56.84943249,26.23156615
RUS4542,RUS,4542,Ust-Kut,USTKUT,57839,57751,57100,451.73,23.39,22.33,1.05,8.64,8.33,0.31,56.80765067,105.8108846
USA4562,USA,4562,Petersburg,PETERSBURG,3207,3215,3224,83.67,22.37,21.88,0.48,8.47,8.22,0.25,56.8100191,-132.9510336
DNK4566,DNK,4566,Aars,AARS,6814,7002,7196,66.27,30.23,29.16,1.07,9.78,9.75,0.03,56.81536864,9.510365904
RUS4569,RUS,4569,Semjonov,SEMJONOV,26944,26903,26600,106.72,28.73,27.10,1.64,10.24,10.71,-0.47,56.80159325,44.48418802
LVA4581,LVA,4581,Karsava,KARSAVA,3072,2891,2722,43.88,27.78,26.73,1.05,9.75,9.49,0.27,56.79664913,27.69267109
RUS4583,RUS,4583,Cajkovskij,CAJKOVSKIJ,80058,84931,90100,308.77,29.13,28.30,0.83,12.20,11.91,0.29,56.72503415,54.05030005
DNK4588,DNK,4588,Hurup,HURUP,2771,2761,2751,47.52,26.49,25.70,0.79,10.10,10.54,-0.44,56.76513491,8.426176916
DNK4589,DNK,4589,Nyk?bing,NYKOBING,11019,10936,10855,44.79,26.23,25.23,1.00,11.13,11.79,-0.67,56.7787382,8.85009685
SWE4590,SWE,4590,Halmstad,HALMSTAD,76543,78998,81037,532.62,27.19,26.15,1.04,10.76,10.36,0.40,56.60756413,12.91256768
DNK4598,DNK,4598,Terndrup,TERNDRUP,1579,1552,1525,12.22,30.73,29.25,1.48,9.40,10.01,-0.61,56.80802121,10.07082543
SWE4599,SWE,4599,Vislanda,VISLANDA,1913,1838,1766,36.22,25.70,25.16,0.54,9.62,9.33,0.29,56.77981916,14.4638994
SWE4600,SWE,4600,Hovmantorp,HOVMANTORP,3328,3204,3085,31.14,26.46,25.16,1.31,9.81,10.42,-0.61,56.78683087,15.14149378
SWE4601,SWE,4601,Kalmar,KALMAR,40952,42687,43699,347.36,25.30,24.40,0.90,11.59,11.70,-0.12,56.68517397,16.31470265
RUS4609,RUS,4609,Pereslavl-Zalesskij,PERESLAVLZALESSKIJ,45481,45412,44900,131.55,26.51,24.79,1.72,10.89,10.96,-0.06,56.73511856,38.87609604
DNK4619,DNK,4619,Fars?,FARSO,3054,3112,3172,26.82,28.46,28.15,0.31,10.13,10.26,-0.14,56.77481588,9.348164364
SWE4626,SWE,4626,Lessebo,LESSEBO,3314,2987,2692,39.68,26.06,25.67,0.39,10.33,10.07,0.25,56.7549408,15.27784088
SWE4627,SWE,4627,Nybro,NYBRO,13526,12910,12322,94.65,27.51,25.01,2.51,10.19,10.29,-0.10,56.74226415,15.93214389
RUS4628,RUS,4628,Dubna,DUBNA,61317,64477,67800,95.03,26.57,25.43,1.14,12.07,11.24,0.83,56.74552207,37.1843852
RUS4634,RUS,4634,Konakovo,KONAKOVO,44671,44603,44100,106.27,26.40,25.22,1.18,12.24,11.44,0.80,56.70829033,36.78165139
DNK4661,DNK,4661,Hadsund,HADSUND,4660,4719,4779,30.12,29.01,28.67,0.34,10.61,10.65,-0.04,56.72617477,10.11335463
LVA4663,LVA,4663,Aizpute,AIZPUTE,6161,5977,5799,28.27,26.23,26.65,-0.42,10.96,10.46,0.50,56.71588264,21.61068593
LVA4664,LVA,4664,Lielvarde,LIELVARDE,10685,10527,10389,29.17,26.64,26.18,0.46,10.42,10.66,-0.24,56.72620603,24.8033656
RUS4666,RUS,4666,Jo?kar-Ola,JOSKAROLA,243108,248722,254466,555.24,30.04,28.78,1.26,10.17,10.26,-0.09,56.6415125,47.88478405
DNK4681,DNK,4681,Thybor?n,THYBORON,4771,4667,4567,32.51,25.23,25.37,-0.14,11.52,12.18,-0.67,56.6511129,8.19643615
RUS4683,RUS,4683,Krasnoufimsk,KRASNOUFIMSK,45177,45109,44600,228.61,30.93,29.63,1.30,10.37,10.26,0.11,56.62653321,57.78881689
RUS4685,RUS,4685,Jalutorovosk,JALUTOROVOSK,37985,37928,37500,139.69,30.17,28.31,1.85,10.25,10.31,-0.06,56.65992767,66.30649331
LVA4691,LVA,4691,Saldus,SALDUS,16063,16115,16169,81.61,27.74,26.72,1.02,10.48,10.51,-0.03,56.67270192,22.50883078
LVA4692,LVA,4692,Jelgava,JELGAVA,73087,68206,63652,141.12,27.32,28.14,-0.83,11.29,11.00,0.29,56.65399269,23.74228573
GBR4699,GBR,4699,Forfar,FORFAR,12795,12980,13168,121.75,26.20,24.65,1.55,7.76,7.76,0.00,56.660728,-2.918579393
DNK4700,DNK,4700,Aalestrup,AALESTRUP,2651,2699,2747,11.79,29.65,28.88,0.77,10.25,9.88,0.38,56.69216154,9.499491914
SWE4701,SWE,4701,Emmaboda,EMMABODA,5437,5251,5071,70.83,25.95,24.86,1.09,9.32,10.00,-0.68,56.6393838,15.55404828
LVA4702,LVA,4702,Skrunda,SKRUNDA,6596,5224,4138,16.98,29.64,27.76,1.88,11.28,10.61,0.67,56.67694778,22.01434402
RUS4703,RUS,4703,Zavol?je,ZAVOLZJE,81035,80912,80000,127.09,30.67,27.77,2.90,12.34,12.36,-0.02,56.6439016,43.455799
RUS4705,RUS,4705,Tomsk,TOMSK,578040,588407,599058,1060.76,28.28,27.67,0.61,10.73,10.28,0.45,56.52214165,85.00842862
DNK4723,DNK,4723,Hobro,HOBRO,10079,10451,10837,55.93,29.67,28.99,0.68,10.54,10.18,0.36,56.64538317,9.801051456
DNK4729,DNK,4729,Mariager,MARIAGER,2238,2285,2333,3.40,28.34,28.53,-0.19,13.01,10.66,2.35,56.64916344,9.990855646
LVA4730,LVA,4730,Dobele,DOBELE,14668,13017,11553,51.02,27.51,28.79,-1.29,10.79,10.88,-0.09,56.6217016,23.28826385
LVA4731,LVA,4731,Jaunjelgava,JAUNJELGAVA,2493,2446,2400,31.64,28.51,26.25,2.26,10.45,10.48,-0.03,56.63247914,25.11771596
SWE4734,SWE,4734,Väckelsång,VACKELSANG,1058,1033,1009,12.82,25.90,25.32,0.58,8.55,10.04,-1.49,56.6385758,14.92662166
LVA4739,LVA,4739,Plavinas,PLAVINAS,4382,4225,4073,50.08,27.47,26.75,0.73,10.93,10.44,0.49,56.61746546,25.7252277
LVA4749,LVA,4749,Aizkraukle,AIZKRAUKLE,10004,9541,9099,24.00,26.80,26.24,0.56,11.06,10.69,0.37,56.61428294,25.24864306
RUS4753,RUS,4753,?eleznogorsk-Ilimskij,ZELEZNOGORSKILIMSKIJ,32718,32668,32300,394.86,23.51,22.46,1.05,8.31,8.32,-0.01,56.53644879,104.1096712
DNK4759,DNK,4759,Balling,BALLING,1182,1192,1202,15.12,27.45,27.05,0.40,10.10,10.16,-0.07,56.61543093,8.885929621
DNK4760,DNK,4760,Skive,SKIVE,21378,21967,22571,90.33,29.14,27.66,1.49,9.74,10.12,-0.38,56.55649484,9.037976297
GBR4772,GBR,4772,Dundee,DUNDEE,181897,179864,177855,443.11,26.29,25.17,1.13,9.54,9.15,0.38,56.4779208,-2.861739405
LVA4773,LVA,4773,Varaklani,VARAKLANI,2760,2580,2413,10.87,27.50,28.27,-0.77,8.54,8.56,-0.02,56.60123326,26.76756439
CAN4782,CAN,4782,Fort St. John,FORTSTJOHN,13771,14775,15817,1154.83,25.47,24.55,0.92,8.20,7.78,0.42,56.34480945,-120.8048518
SWE4783,SWE,4783,Strömsnäsbruk,STROMSNASBRUK,2829,2394,2026,51.10,27.22,26.19,1.02,9.60,9.42,0.18,56.55788917,13.73702897
